[
    {
        "original_title": "Associate Director of IT",
        "formatted_title": "Associate Director Of IT",
        "job_tier": "N/A",
        "city": "Austin",
        "state": "Texas",
        "country_region": "United States",
        "lat": 30.2672,
        "lon": -97.7431,
        "pay": "147000.00",
        "pay_type": "Salary"
    },
    {
        "original_title": "Infrastructure Engineer",
        "formatted_title": "Infrastructure Engineer",
        "job_tier": "N/A",
        "city": "Troy",
        "state": "Michigan",
        "country_region": "United States",
        "lat": 42.5834,
        "lon": -83.1446,
        "pay": "65563",
        "pay_type": "Salary"
    },
    {
        "original_title": "Systems admin",
        "formatted_title": "Systems Admin",
        "job_tier": "N/A",
        "city": "Beaumont",
        "state": "Texas",
        "country_region": "United States",
        "lat": 30.0802,
        "lon": -94.1266,
        "pay": "100000",
        "pay_type": "Salary"
    },
    {
        "original_title": "Systems Administrator",
        "formatted_title": "Systems Administrator",
        "job_tier": "N/A",
        "city": "Muskogee",
        "state": "Oklahoma",
        "country_region": "United States",
        "lat": 35.7479,
        "lon": -95.3697,
        "pay": "28.9",
        "pay_type": "Hourly"
    },
    {
        "original_title": "Senior System Admin",
        "formatted_title": "System Admin 3",
        "job_tier": "3",
        "city": "",
        "state": "Minnesota",
        "country_region": "United States",
        "lat": 46.7296,
        "lon": -94.6859,
        "pay": "98000",
        "pay_type": "Hourly"
    },
    {
        "original_title": "IT Senior Analyst",
        "formatted_title": "ITAnalyst 3",
        "job_tier": "3",
        "city": "",
        "state": "Arizona",
        "country_region": "United States",
        "lat": 34.0489,
        "lon": -111.0937,
        "pay": "73000",
        "pay_type": "Salary"
    },
    {
        "original_title": "Information Security Analyst",
        "formatted_title": "Information Security Analyst",
        "job_tier": "N/A",
        "city": "Baton RougeLA",
        "state": "Louisiana",
        "country_region": "United States",
        "lat": 30.4507,
        "lon": -91.1546,
        "pay": "58000",
        "pay_type": "Salary"
    },
    {
        "original_title": "Sales Engineer",
        "formatted_title": "Sales Engineer",
        "job_tier": "N/A",
        "city": "OKC",
        "state": "Oklahoma",
        "country_region": "United States",
        "lat": 35.4676,
        "lon": -97.5164,
        "pay": "300000",
        "pay_type": "Salary"
    },
    {
        "original_title": "Information Systems Representative",
        "formatted_title": "Information Systems Representative",
        "job_tier": "N/A",
        "city": "Memphis",
        "state": "Tennessee",
        "country_region": "United States",
        "lat": 35.1495,
        "lon": -90.049,
        "pay": "71000",
        "pay_type": "Salary"
    },
    {
        "original_title": "Linux System Administrator",
        "formatted_title": "Linux System Administrator",
        "job_tier": "N/A",
        "city": "Patuxent River",
        "state": "Maryland",
        "country_region": "United States",
        "lat": 38.2842,
        "lon": -76.4448,
        "pay": "142600",
        "pay_type": "Salary"
    },
    {
        "original_title": "IT SysAdmin (1 of 1)",
        "formatted_title": "IT Sysadmin (1 Of 1) 1",
        "job_tier": "1",
        "city": "",
        "state": "Florida",
        "country_region": "United States",
        "lat": 27.7663,
        "lon": -81.6868,
        "pay": "59000",
        "pay_type": "Salary"
    },
    {
        "original_title": "RHEL Systems Engineer",
        "formatted_title": "Rhel Systems Engineer",
        "job_tier": "N/A",
        "city": "Springs",
        "state": "Colorado",
        "country_region": "United States",
        "lat": 38.8339,
        "lon": -104.8214,
        "pay": "146000",
        "pay_type": "Salary"
    },
    {
        "original_title": "IT Support Specialist",
        "formatted_title": "IT Support Specialist",
        "job_tier": "N/A",
        "city": "Frederick",
        "state": "Maryland",
        "country_region": "United States",
        "lat": 39.4142,
        "lon": -77.4105,
        "pay": "20",
        "pay_type": "Hourly"
    },
    {
        "original_title": "IT Technician ",
        "formatted_title": "IT Technician",
        "job_tier": "N/A",
        "city": "City",
        "state": "Oklahoma",
        "country_region": "United States",
        "lat": 35.4676,
        "lon": -97.5164,
        "pay": "27",
        "pay_type": "Hourly"
    },
    {
        "original_title": "Technical Consultant",
        "formatted_title": "Technical Consultant",
        "job_tier": "N/A",
        "city": "Hertfordshire",
        "state": "N/A",
        "country_region": "Unknown",
        "lat": 51.8098,
        "lon": -0.2375,
        "pay": "30302.64",
        "pay_type": "Salary"
    },
    {
        "original_title": "System admin",
        "formatted_title": "System Admin",
        "job_tier": "N/A",
        "city": "St. John\u2019s",
        "state": "N/A",
        "country_region": "Canada",
        "lat": 47.5588,
        "lon": -52.7011,
        "pay": "20.43",
        "pay_type": "Hourly"
    },
    {
        "original_title": "IT Manager",
        "formatted_title": "IT Manager",
        "job_tier": "N/A",
        "city": "Omaha",
        "state": "Nebraska",
        "country_region": "United States",
        "lat": 41.2565,
        "lon": -95.9345,
        "pay": "82000",
        "pay_type": "Salary"
    },
    {
        "original_title": "System Administrator",
        "formatted_title": "System Administrator",
        "job_tier": "N/A",
        "city": "Orange",
        "state": "Texas",
        "country_region": "United States",
        "lat": 30.163,
        "lon": -93.7637,
        "pay": "22.97",
        "pay_type": "Hourly"
    },
    {
        "original_title": "Electrical Engineer ",
        "formatted_title": "Electrical Engineer",
        "job_tier": "N/A",
        "city": "Alexandria",
        "state": "N/A",
        "country_region": "Egypt",
        "lat": 31.2156,
        "lon": 29.9553,
        "pay": "10",
        "pay_type": "Hourly"
    },
    {
        "original_title": "Junior IT technition",
        "formatted_title": "IT Technition 1",
        "job_tier": "1",
        "city": "Glasgow  Scotland",
        "state": "Alba / Scotland",
        "country_region": "United States",
        "lat": 55.8642,
        "lon": -4.2518,
        "pay": "23421",
        "pay_type": "Salary"
    },
    {
        "original_title": "IT Manager",
        "formatted_title": "IT Manager",
        "job_tier": "N/A",
        "city": "Trenton",
        "state": "New Jersey",
        "country_region": "United States",
        "lat": 40.2171,
        "lon": -74.7429,
        "pay": "100000",
        "pay_type": "Salary"
    },
    {
        "original_title": "Support ",
        "formatted_title": "Support",
        "job_tier": "N/A",
        "city": "Shivasatakshi",
        "state": "N/A",
        "country_region": "Nepal",
        "lat": 25.5861,
        "lon": 88.5072,
        "pay": "20",
        "pay_type": "Hourly"
    },
    {
        "original_title": "Software Deployment Engineer",
        "formatted_title": "Software Deployment Engineer",
        "job_tier": "N/A",
        "city": "Ennis",
        "state": "Texas",
        "country_region": "United States",
        "lat": 32.3295,
        "lon": -96.6179,
        "pay": "65000",
        "pay_type": "Salary"
    },
    {
        "original_title": "Tier 2 Desktop Support Technician",
        "formatted_title": "Desktop Support Technician 2",
        "job_tier": "2",
        "city": "Greensburg",
        "state": "Pennsylvania",
        "country_region": "United States",
        "lat": 40.3015,
        "lon": -79.5389,
        "pay": "24.04",
        "pay_type": "Hourly"
    },
    {
        "original_title": "Data and Systems Manager",
        "formatted_title": "Data And Systems Manager",
        "job_tier": "N/A",
        "city": "Little Rock",
        "state": "Arkansas",
        "country_region": "United States",
        "lat": 34.7465,
        "lon": -92.2896,
        "pay": "55000",
        "pay_type": "Salary"
    },
    {
        "original_title": "IT Professional 2",
        "formatted_title": "IT Professional 2",
        "job_tier": "2",
        "city": "Ely",
        "state": "Nevada",
        "country_region": "United States",
        "lat": 39.2479,
        "lon": -114.8876,
        "pay": "49.82",
        "pay_type": "Hourly"
    },
    {
        "original_title": "IT Network Engineer",
        "formatted_title": "IT Network Engineer",
        "job_tier": "N/A",
        "city": "Herndon",
        "state": "Virginia",
        "country_region": "United States",
        "lat": 38.9696,
        "lon": -77.3861,
        "pay": "123000",
        "pay_type": "Salary"
    },
    {
        "original_title": "Systems Engineer",
        "formatted_title": "Systems Engineer",
        "job_tier": "N/A",
        "city": "Wausau",
        "state": "Wisconsin",
        "country_region": "United States",
        "lat": 44.9591,
        "lon": -89.6301,
        "pay": "81250",
        "pay_type": "Salary"
    },
    {
        "original_title": "It specialist",
        "formatted_title": "IT Specialist",
        "job_tier": "N/A",
        "city": "Saint Louis",
        "state": "Missouri",
        "country_region": "United States",
        "lat": 38.627,
        "lon": -90.1994,
        "pay": "76000",
        "pay_type": "Salary"
    },
    {
        "original_title": "Technical Support Engineer II",
        "formatted_title": "Technical Support Engineer 2",
        "job_tier": "2",
        "city": "City",
        "state": "Kansas",
        "country_region": "United States",
        "lat": 39.0997,
        "lon": -94.5786,
        "pay": "71800",
        "pay_type": "Salary"
    },
    {
        "original_title": "IT Engineer",
        "formatted_title": "IT Engineer",
        "job_tier": "N/A",
        "city": "Madison",
        "state": "Wisconsin",
        "country_region": "United States",
        "lat": 43.0747,
        "lon": -89.3842,
        "pay": "65000",
        "pay_type": "Salary"
    },
    {
        "original_title": "IT Director",
        "formatted_title": "IT Director",
        "job_tier": "N/A",
        "city": "Green Bay",
        "state": "Wisconsin",
        "country_region": "United States",
        "lat": 44.5133,
        "lon": -88.0133,
        "pay": "90000",
        "pay_type": "Salary"
    },
    {
        "original_title": "System Engineer",
        "formatted_title": "System Engineer",
        "job_tier": "N/A",
        "city": "Lees Summit",
        "state": "Missouri",
        "country_region": "United States",
        "lat": 38.9108,
        "lon": -94.3822,
        "pay": "104000",
        "pay_type": "Salary"
    },
    {
        "original_title": "Data Manager",
        "formatted_title": "Data Manager",
        "job_tier": "N/A",
        "city": "London",
        "state": "N/A",
        "country_region": "UK",
        "lat": 51.5074,
        "lon": -0.1278,
        "pay": "65000",
        "pay_type": "Salary"
    },
    {
        "original_title": "Senior Incident Response Systems Engineer",
        "formatted_title": "Incident Response Systems Engineer 3",
        "job_tier": "3",
        "city": "Cleveland",
        "state": "Ohio",
        "country_region": "United States",
        "lat": 41.4993,
        "lon": -81.6944,
        "pay": "125000",
        "pay_type": "Salary"
    },
    {
        "original_title": "IT Support Specialist",
        "formatted_title": "IT Support Specialist",
        "job_tier": "N/A",
        "city": "Charleston",
        "state": "West Virginia",
        "country_region": "United States",
        "lat": 38.3498,
        "lon": -81.6326,
        "pay": "45000",
        "pay_type": "Salary"
    },
    {
        "original_title": "IT / Purchasing / Infrastructure Coordinator",
        "formatted_title": "IT / Purchasing / Infrastructure Coordinator",
        "job_tier": "N/A",
        "city": "Clinton Twp",
        "state": "Michigan",
        "country_region": "United States",
        "lat": 42.6149,
        "lon": -82.9559,
        "pay": "55.61",
        "pay_type": "Hourly"
    },
    {
        "original_title": "Cloud Serive Technician",
        "formatted_title": "Cloud Serive Technician",
        "job_tier": "N/A",
        "city": "GalwayiRELAND",
        "state": "N/A",
        "country_region": "Unknown",
        "lat": 53.2707,
        "lon": -9.0568,
        "pay": "560000",
        "pay_type": "Salary"
    },
    {
        "original_title": "It radiology application analyst/pacs admin",
        "formatted_title": "IT Radiology Application Analyst/Pacs Admin",
        "job_tier": "N/A",
        "city": "Teaneck",
        "state": "New Jersey",
        "country_region": "United States",
        "lat": 40.8948,
        "lon": -74.0107,
        "pay": "90000",
        "pay_type": "Salary"
    },
    {
        "original_title": "Consultant ",
        "formatted_title": "Consultant",
        "job_tier": "N/A",
        "city": "Boston",
        "state": "Massachusetts",
        "country_region": "United States",
        "lat": 42.3601,
        "lon": -71.0589,
        "pay": "94000",
        "pay_type": "Salary"
    },
    {
        "original_title": "FRCS RMF SME",
        "formatted_title": "Frcs Rmf Sme",
        "job_tier": "N/A",
        "city": "Chesapeake",
        "state": "Virginia",
        "country_region": "United States",
        "lat": 36.7682,
        "lon": -76.2875,
        "pay": "132190",
        "pay_type": "Salary"
    },
    {
        "original_title": "Senior Associate End User Technology Engineer",
        "formatted_title": "Associate End User Technology Engineer 3",
        "job_tier": "3",
        "city": "London",
        "state": "N/A",
        "country_region": "UK",
        "lat": 51.5074,
        "lon": -0.1278,
        "pay": "55000",
        "pay_type": "Salary"
    },
    {
        "original_title": "System Administrator ",
        "formatted_title": "System Administrator",
        "job_tier": "N/A",
        "city": "Wilmington",
        "state": "North Carolina",
        "country_region": "United States",
        "lat": 34.2257,
        "lon": -77.9447,
        "pay": "37",
        "pay_type": "Hourly"
    },
    {
        "original_title": "Cyber Security Engineer",
        "formatted_title": "Cyber Security Engineer",
        "job_tier": "N/A",
        "city": "State",
        "state": "Washington",
        "country_region": "United States",
        "lat": 47.7511,
        "lon": -120.7401,
        "pay": "136000",
        "pay_type": "Salary"
    },
    {
        "original_title": "Network Manager",
        "formatted_title": "Network Manager",
        "job_tier": "N/A",
        "city": "London",
        "state": "N/A",
        "country_region": "Unknown",
        "lat": 51.5074,
        "lon": -0.1278,
        "pay": "94000",
        "pay_type": "Salary"
    },
    {
        "original_title": "System-/Network Egineer",
        "formatted_title": "System-/Network Egineer",
        "job_tier": "N/A",
        "city": "Hengevelde",
        "state": "N/A",
        "country_region": "Netherlands",
        "lat": 52.2076,
        "lon": 6.5594,
        "pay": "1431",
        "pay_type": "Hourly"
    },
    {
        "original_title": "Development Support Engineer",
        "formatted_title": "Development Support Engineer",
        "job_tier": "N/A",
        "city": "Atlanta",
        "state": "N/A",
        "country_region": "Unknown",
        "lat": 33.749,
        "lon": -84.388,
        "pay": "69000",
        "pay_type": "Salary"
    },
    {
        "original_title": "System Administrator/IT Dept Supervisor",
        "formatted_title": "System Administrator/IT Dept Supervisor",
        "job_tier": "N/A",
        "city": "New Albany",
        "state": "Ohio",
        "country_region": "United States",
        "lat": 40.0913,
        "lon": -82.9977,
        "pay": "70000",
        "pay_type": "Salary"
    },
    {
        "original_title": "Web Developer ",
        "formatted_title": "Web Developer",
        "job_tier": "N/A",
        "city": "Fort Wayne",
        "state": "Indiana",
        "country_region": "United States",
        "lat": 41.0793,
        "lon": -85.1394,
        "pay": "68000",
        "pay_type": "Salary"
    },
    {
        "original_title": "It Tier 3 technician ",
        "formatted_title": "ITTechnician 3",
        "job_tier": "3",
        "city": "Cambridge",
        "state": "Massachusetts",
        "country_region": "United States",
        "lat": 42.3736,
        "lon": -71.1097,
        "pay": "56000",
        "pay_type": "Salary"
    },
    {
        "original_title": "Client Analyst III",
        "formatted_title": "Client Analysti 3",
        "job_tier": "3",
        "city": "Greenwood",
        "state": "South Carolina",
        "country_region": "United States",
        "lat": 34.1954,
        "lon": -82.1618,
        "pay": "33.31",
        "pay_type": "Hourly"
    },
    {
        "original_title": "Senior Associate",
        "formatted_title": "Associate 3",
        "job_tier": "3",
        "city": "New york",
        "state": "N/A",
        "country_region": "Unknown",
        "lat": 40.7128,
        "lon": -74.006,
        "pay": "73000",
        "pay_type": "Salary"
    },
    {
        "original_title": "IT Coordinator / T1-T2 helpdesk",
        "formatted_title": "IT Coordinator /-Helpdesk 2",
        "job_tier": "2",
        "city": "Omaha",
        "state": "Nebraska",
        "country_region": "United States",
        "lat": 41.2565,
        "lon": -95.9345,
        "pay": "55000",
        "pay_type": "Salary"
    },
    {
        "original_title": "Director IT",
        "formatted_title": "Director IT",
        "job_tier": "N/A",
        "city": "Schaumburg",
        "state": "Illinois",
        "country_region": "United States",
        "lat": 42.0334,
        "lon": -88.0834,
        "pay": "173400",
        "pay_type": "Salary"
    },
    {
        "original_title": "Senior IT Support Engineer ",
        "formatted_title": "IT Support Engineer 3",
        "job_tier": "3",
        "city": "MANCHESTER",
        "state": "N/A",
        "country_region": "UK",
        "lat": 53.4831,
        "lon": -2.2397,
        "pay": "36600",
        "pay_type": "Salary"
    },
    {
        "original_title": "Tech support analyst i",
        "formatted_title": "Tech Support Analyst 1",
        "job_tier": "1",
        "city": "Spokane",
        "state": "Washington",
        "country_region": "United States",
        "lat": 47.6588,
        "lon": -117.426,
        "pay": "24.1",
        "pay_type": "Hourly"
    },
    {
        "original_title": "Senior IT Associate",
        "formatted_title": "IT Associate 3",
        "job_tier": "3",
        "city": "New York City",
        "state": "N/A",
        "country_region": "Unknown",
        "lat": 40.7128,
        "lon": -74.006,
        "pay": "45.22",
        "pay_type": "Salary"
    },
    {
        "original_title": "Information Systems Supervisor ",
        "formatted_title": "Information Systems Supervisor",
        "job_tier": "N/A",
        "city": "Eureka",
        "state": "California",
        "country_region": "United States",
        "lat": 40.8017,
        "lon": -124.1637,
        "pay": "40.07",
        "pay_type": "Hourly"
    },
    {
        "original_title": "IT analyst ",
        "formatted_title": "IT Analyst",
        "job_tier": "N/A",
        "city": "Waterloo",
        "state": "N/A",
        "country_region": "Canada",
        "lat": 43.4643,
        "lon": -80.5204,
        "pay": "48000",
        "pay_type": "Salary"
    },
    {
        "original_title": "Jr. Cloud Administrator ",
        "formatted_title": "Cloud Administrator 1",
        "job_tier": "1",
        "city": "Ottawa",
        "state": "N/A",
        "country_region": "Canada",
        "lat": 45.4215,
        "lon": -75.6906,
        "pay": "15.6",
        "pay_type": "Hourly"
    },
    {
        "original_title": "Systems Engineer ",
        "formatted_title": "Systems Engineer",
        "job_tier": "N/A",
        "city": "St. Louis",
        "state": "Missouri",
        "country_region": "United States",
        "lat": 38.627,
        "lon": -90.1994,
        "pay": "95000",
        "pay_type": "Salary"
    },
    {
        "original_title": "Systems Admin",
        "formatted_title": "Systems Admin",
        "job_tier": "N/A",
        "city": "Annapolis Junction",
        "state": "Maryland",
        "country_region": "United States",
        "lat": 39.1096,
        "lon": -76.7769,
        "pay": "69.7",
        "pay_type": "Hourly"
    },
    {
        "original_title": "Systems Administrator",
        "formatted_title": "Systems Administrator",
        "job_tier": "N/A",
        "city": "Geneva",
        "state": "New York",
        "country_region": "United States",
        "lat": 38.2919,
        "lon": -77.37,
        "pay": "98500",
        "pay_type": "Salary"
    },
    {
        "original_title": "Structured Cabling Soecialist",
        "formatted_title": "Structured Cabling Soecialist",
        "job_tier": "N/A",
        "city": "Cleveland",
        "state": "Ohio",
        "country_region": "United States",
        "lat": 41.4993,
        "lon": -81.6944,
        "pay": "58500",
        "pay_type": "Salary"
    },
    {
        "original_title": "Information Technology Manager",
        "formatted_title": "Information Technology Manager",
        "job_tier": "N/A",
        "city": "Concord",
        "state": "California",
        "country_region": "United States",
        "lat": 37.9772,
        "lon": -122.0311,
        "pay": "62500",
        "pay_type": "Salary"
    },
    {
        "original_title": "IT Manager SaaS",
        "formatted_title": "IT Manager Saas",
        "job_tier": "N/A",
        "city": "Atlanta",
        "state": "N/A",
        "country_region": "Georgia",
        "lat": 33.749,
        "lon": -84.388,
        "pay": "115000",
        "pay_type": "Salary"
    },
    {
        "original_title": "Web Developer",
        "formatted_title": "Web Developer",
        "job_tier": "N/A",
        "city": "Leeds",
        "state": "N/A",
        "country_region": "UK",
        "lat": 53.8008,
        "lon": -1.5491,
        "pay": "41000",
        "pay_type": "Salary"
    },
    {
        "original_title": "Network Systems Engineer",
        "formatted_title": "Network Systems Engineer",
        "job_tier": "N/A",
        "city": "Monterey",
        "state": "California",
        "country_region": "United States",
        "lat": 36.6002,
        "lon": -121.8947,
        "pay": "90000",
        "pay_type": "Salary"
    },
    {
        "original_title": "Field supervisor",
        "formatted_title": "Field Supervisor",
        "job_tier": "N/A",
        "city": "portsmouth",
        "state": "N/A",
        "country_region": "Unknown",
        "lat": 50.8192,
        "lon": -1.0873,
        "pay": "19",
        "pay_type": "Hourly"
    },
    {
        "original_title": "IT Customer Support Journey",
        "formatted_title": "IT Customer Support Journey",
        "job_tier": "N/A",
        "city": "Union Gap",
        "state": "Washington",
        "country_region": "United States",
        "lat": 46.5645,
        "lon": -120.4807,
        "pay": "90084",
        "pay_type": "Salary"
    },
    {
        "original_title": "System Administrator II",
        "formatted_title": "System Administrator 2",
        "job_tier": "2",
        "city": "Greensboro",
        "state": "North Carolina",
        "country_region": "United States",
        "lat": 36.0726,
        "lon": -79.792,
        "pay": "72149",
        "pay_type": "Salary"
    },
    {
        "original_title": "ICT Solutions Architecht",
        "formatted_title": "Ict Solutions Architecht",
        "job_tier": "N/A",
        "city": "Winnipeg",
        "state": "N/A",
        "country_region": "Canada",
        "lat": 49.8951,
        "lon": -97.1384,
        "pay": "50000",
        "pay_type": "Salary"
    },
    {
        "original_title": "IT Director",
        "formatted_title": "IT Director",
        "job_tier": "N/A",
        "city": "na USA",
        "state": "N/A",
        "country_region": "India",
        "lat": 40.2672,
        "lon": -86.1349,
        "pay": "119500",
        "pay_type": "Salary"
    },
    {
        "original_title": "Senior Advisor / Advisor II",
        "formatted_title": "Advisor / Advisor 3",
        "job_tier": "3",
        "city": "",
        "state": "Utah",
        "country_region": "United States",
        "lat": 39.32,
        "lon": -111.0937,
        "pay": "128000",
        "pay_type": "Salary"
    },
    {
        "original_title": "Helpdesk lvl 1.5",
        "formatted_title": "Helpdesk.5",
        "job_tier": "5",
        "city": "Kenosha",
        "state": "Wisconsin",
        "country_region": "United States",
        "lat": 42.5847,
        "lon": -87.8212,
        "pay": "24",
        "pay_type": "Hourly"
    },
    {
        "original_title": "Infrastructure Systems Engineer ",
        "formatted_title": "Infrastructure Systems Engineer",
        "job_tier": "N/A",
        "city": "Tampa",
        "state": "N/A",
        "country_region": "Unknown",
        "lat": 27.9506,
        "lon": -82.4572,
        "pay": "83000",
        "pay_type": "Salary"
    },
    {
        "original_title": "Senior Support Engineer",
        "formatted_title": "Support Engineer 3",
        "job_tier": "3",
        "city": "Edmonton",
        "state": "N/A",
        "country_region": "Canada",
        "lat": 53.5461,
        "lon": -113.4938,
        "pay": "34.05",
        "pay_type": "Salary"
    },
    {
        "original_title": "Tier 2 Technician",
        "formatted_title": "Technician 2",
        "job_tier": "2",
        "city": "Dallas",
        "state": "Texas",
        "country_region": "United States",
        "lat": 32.7767,
        "lon": -96.797,
        "pay": "55000",
        "pay_type": "Salary"
    },
    {
        "original_title": "IT Specialist",
        "formatted_title": "IT Specialist",
        "job_tier": "N/A",
        "city": "Michigan",
        "state": "N/A",
        "country_region": "Unknown",
        "lat": 44.3148,
        "lon": -85.6024,
        "pay": "25.60",
        "pay_type": "Hourly"
    },
    {
        "original_title": "Technical Support Analyst",
        "formatted_title": "Technical Support Analyst",
        "job_tier": "N/A",
        "city": "Flint",
        "state": "Michigan",
        "country_region": "United States",
        "lat": 43.0125,
        "lon": -83.6875,
        "pay": "68000",
        "pay_type": "Salary"
    },
    {
        "original_title": "Systems Support Specialist ",
        "formatted_title": "Systems Support Specialist",
        "job_tier": "N/A",
        "city": "Kennebunk",
        "state": "Maine",
        "country_region": "United States",
        "lat": 43.3813,
        "lon": -70.5444,
        "pay": "27.75",
        "pay_type": "Hourly"
    },
    {
        "original_title": "Sr. Security Administrator",
        "formatted_title": "Security Administrator 3",
        "job_tier": "3",
        "city": "City",
        "state": "Oklahoma",
        "country_region": "United States",
        "lat": 35.4676,
        "lon": -97.5164,
        "pay": "95000.00",
        "pay_type": "Salary"
    },
    {
        "original_title": "IT Senior Professional",
        "formatted_title": "ITProfessional 3",
        "job_tier": "3",
        "city": "",
        "state": "N/A",
        "country_region": "Slovakia",
        "lat": 48.669,
        "lon": 19.699,
        "pay": "3300",
        "pay_type": "Salary"
    },
    {
        "original_title": "Security Engineer",
        "formatted_title": "Security Engineer",
        "job_tier": "N/A",
        "city": "City",
        "state": "Oklahoma",
        "country_region": "United States",
        "lat": 35.4676,
        "lon": -97.5164,
        "pay": "76000",
        "pay_type": "Salary"
    },
    {
        "original_title": "INFORMATION SECURITY ENGINEER",
        "formatted_title": "Information Security Engineer",
        "job_tier": "N/A",
        "city": "City of New York",
        "state": "New York",
        "country_region": "United States",
        "lat": 40.7128,
        "lon": -74.006,
        "pay": "78000",
        "pay_type": "Salary"
    },
    {
        "original_title": "Senior system administrator",
        "formatted_title": "System Administrator 3",
        "job_tier": "3",
        "city": "Arlington",
        "state": "Virginia",
        "country_region": "United States",
        "lat": 38.8799,
        "lon": -77.1068,
        "pay": "148000",
        "pay_type": "Salary"
    },
    {
        "original_title": "IT Cybersecurity Specialist",
        "formatted_title": "IT Cybersecurity Specialist",
        "job_tier": "N/A",
        "city": "Detroit",
        "state": "Michigan",
        "country_region": "United States",
        "lat": 42.3314,
        "lon": -83.0458,
        "pay": "114000",
        "pay_type": "Salary"
    },
    {
        "original_title": "IT Specialist",
        "formatted_title": "IT Specialist",
        "job_tier": "N/A",
        "city": "Irvine",
        "state": "California",
        "country_region": "United States",
        "lat": 33.6846,
        "lon": -117.8265,
        "pay": "125000",
        "pay_type": "Salary"
    },
    {
        "original_title": "Principal Network Specialist - Presales",
        "formatted_title": "Principal Network Specialist - Presales",
        "job_tier": "N/A",
        "city": "Denver",
        "state": "Colorado",
        "country_region": "United States",
        "lat": 39.7392,
        "lon": -104.9903,
        "pay": "298000",
        "pay_type": "Salary"
    },
    {
        "original_title": "Network Adminstrator",
        "formatted_title": "Network Adminstrator",
        "job_tier": "N/A",
        "city": "Hartland",
        "state": "Michigan",
        "country_region": "United States",
        "lat": 42.6426,
        "lon": -83.6639,
        "pay": "48000",
        "pay_type": "Salary"
    },
    {
        "original_title": "Network Engineer ",
        "formatted_title": "Network Engineer",
        "job_tier": "N/A",
        "city": "Fort Wayne na USA",
        "state": "N/A",
        "country_region": "India",
        "lat": 41.0793,
        "lon": -85.1394,
        "pay": "88000",
        "pay_type": "Salary"
    },
    {
        "original_title": "Tier 1 Support Technician",
        "formatted_title": "Support Technician 1",
        "job_tier": "1",
        "city": "Cleveland",
        "state": "Ohio",
        "country_region": "United States",
        "lat": 41.4993,
        "lon": -81.6944,
        "pay": "20",
        "pay_type": "Hourly"
    },
    {
        "original_title": "Information system specialist ",
        "formatted_title": "Information System Specialist",
        "job_tier": "N/A",
        "city": "Scranton",
        "state": "Pennsylvania",
        "country_region": "United States",
        "lat": 41.408,
        "lon": -75.6624,
        "pay": "55000",
        "pay_type": "Salary"
    },
    {
        "original_title": "IT director",
        "formatted_title": "IT Director",
        "job_tier": "N/A",
        "city": "Salisbury",
        "state": "Maryland",
        "country_region": "United States",
        "lat": 38.3658,
        "lon": -75.599,
        "pay": "40",
        "pay_type": "Hourly"
    },
    {
        "original_title": "District Technology Technician II",
        "formatted_title": "District Technology Technician 2",
        "job_tier": "2",
        "city": "Knoxville",
        "state": "N/A",
        "country_region": "Unknown",
        "lat": 35.9606,
        "lon": -83.9207,
        "pay": "48000",
        "pay_type": "Salary"
    },
    {
        "original_title": "Identity Engineer",
        "formatted_title": "Identity Engineer",
        "job_tier": "N/A",
        "city": "Falls",
        "state": "Idaho",
        "country_region": "United States",
        "lat": 43.4917,
        "lon": -112.0337,
        "pay": "108000",
        "pay_type": "Salary"
    },
    {
        "original_title": "Senior System Administrator",
        "formatted_title": "System Administrator 3",
        "job_tier": "3",
        "city": "New Orleans",
        "state": "Louisiana",
        "country_region": "United States",
        "lat": 29.9511,
        "lon": -90.0715,
        "pay": "100000",
        "pay_type": "Salary"
    },
    {
        "original_title": "Network Technician",
        "formatted_title": "Network Technician",
        "job_tier": "N/A",
        "city": "Raleigh",
        "state": "North Carolina",
        "country_region": "United States",
        "lat": 35.7796,
        "lon": -78.6382,
        "pay": "27",
        "pay_type": "Hourly"
    },
    {
        "original_title": "IT Support Specialist ",
        "formatted_title": "IT Support Specialist",
        "job_tier": "N/A",
        "city": "",
        "state": "Illinois",
        "country_region": "United States",
        "lat": 40.6331,
        "lon": -89.3985,
        "pay": "53000",
        "pay_type": "Salary"
    },
    {
        "original_title": "Communications Network Engineer",
        "formatted_title": "Communications Network Engineer",
        "job_tier": "N/A",
        "city": "Millington",
        "state": "Tennessee",
        "country_region": "United States",
        "lat": 35.3395,
        "lon": -89.897,
        "pay": "30",
        "pay_type": "Hourly"
    },
    {
        "original_title": "Priviledge access management Analyst",
        "formatted_title": "Priviledge Access Management Analyst",
        "job_tier": "N/A",
        "city": "Warwick",
        "state": "N/A",
        "country_region": "UK",
        "lat": 52.2869,
        "lon": -1.5924,
        "pay": "49800",
        "pay_type": "Salary"
    },
    {
        "original_title": "IT support",
        "formatted_title": "IT Support",
        "job_tier": "N/A",
        "city": "biloxi united states",
        "state": "N/A",
        "country_region": "Unknown",
        "lat": 30.396,
        "lon": -88.8854,
        "pay": "50000",
        "pay_type": "Salary"
    },
    {
        "original_title": "Data Center Engineer II",
        "formatted_title": "Data Center Engineer 2",
        "job_tier": "2",
        "city": "Las Vegas",
        "state": "N/A",
        "country_region": "Unknown",
        "lat": 36.1699,
        "lon": -115.1398,
        "pay": "32.69",
        "pay_type": "Hourly"
    },
    {
        "original_title": "It support desk tech tier 1",
        "formatted_title": "IT Support Desk Tech 1",
        "job_tier": "1",
        "city": "Grand Rapids",
        "state": "Michigan",
        "country_region": "United States",
        "lat": 42.9634,
        "lon": -85.6681,
        "pay": "21.50",
        "pay_type": "Hourly"
    },
    {
        "original_title": "IT Technician/Help Desk",
        "formatted_title": "IT Technician/Help Desk",
        "job_tier": "N/A",
        "city": "Harrisonburg",
        "state": "Virginia",
        "country_region": "United States",
        "lat": 38.4496,
        "lon": -78.8689,
        "pay": "20",
        "pay_type": "Hourly"
    },
    {
        "original_title": "Director of Operations",
        "formatted_title": "Director Of Operations",
        "job_tier": "N/A",
        "city": "Evansville",
        "state": "N/A",
        "country_region": "Unknown",
        "lat": 37.9716,
        "lon": -87.5711,
        "pay": "90000",
        "pay_type": "Salary"
    },
    {
        "original_title": "IT Support Specialist - Security",
        "formatted_title": "IT Support Specialist - Security",
        "job_tier": "N/A",
        "city": "Orlando",
        "state": "Florida",
        "country_region": "United States",
        "lat": 28.5383,
        "lon": -81.3792,
        "pay": "22.86",
        "pay_type": "Hourly"
    },
    {
        "original_title": "Director of Technology",
        "formatted_title": "Director Of Technology",
        "job_tier": "N/A",
        "city": "York",
        "state": "Pennsylvania",
        "country_region": "United States",
        "lat": 39.9626,
        "lon": -76.7277,
        "pay": "86000",
        "pay_type": "Salary"
    },
    {
        "original_title": "IT Network Specialist",
        "formatted_title": "IT Network Specialist",
        "job_tier": "N/A",
        "city": "Easton",
        "state": "Maryland",
        "country_region": "United States",
        "lat": 38.7748,
        "lon": -76.0767,
        "pay": "75000",
        "pay_type": "Salary"
    },
    {
        "original_title": "Jr System Administrator",
        "formatted_title": "System Administrator 1",
        "job_tier": "1",
        "city": "Albuquerque",
        "state": "New Mexico",
        "country_region": "United States",
        "lat": 35.0844,
        "lon": -106.6504,
        "pay": "27",
        "pay_type": "Hourly"
    },
    {
        "original_title": "IT Administrator",
        "formatted_title": "IT Administrator",
        "job_tier": "N/A",
        "city": "Dubai",
        "state": "N/A",
        "country_region": "Unknown",
        "lat": 25.2048,
        "lon": 55.2708,
        "pay": "60000",
        "pay_type": "Salary"
    },
    {
        "original_title": "Technician System Specialist",
        "formatted_title": "Technician System Specialist",
        "job_tier": "N/A",
        "city": "Clarksburg",
        "state": "West Virginia",
        "country_region": "United States",
        "lat": 39.2806,
        "lon": -80.3445,
        "pay": "58021",
        "pay_type": "Salary"
    },
    {
        "original_title": "IS Support Specialist ",
        "formatted_title": "Is Support Specialist",
        "job_tier": "N/A",
        "city": "Livonia",
        "state": "Michigan",
        "country_region": "United States",
        "lat": 42.3684,
        "lon": -83.3527,
        "pay": "60000",
        "pay_type": "Salary"
    },
    {
        "original_title": "IT Manager",
        "formatted_title": "IT Manager",
        "job_tier": "N/A",
        "city": "Vancouver",
        "state": "N/A",
        "country_region": "Canada",
        "lat": 49.2827,
        "lon": -123.1207,
        "pay": "76500",
        "pay_type": "Salary"
    },
    {
        "original_title": "Team Leader",
        "formatted_title": "Team Leader",
        "job_tier": "N/A",
        "city": "Athens",
        "state": "N/A",
        "country_region": "Greece",
        "lat": 37.9838,
        "lon": 23.7275,
        "pay": "1600",
        "pay_type": "Salary"
    },
    {
        "original_title": "Network Administrator",
        "formatted_title": "Network Administrator",
        "job_tier": "N/A",
        "city": "Charleston",
        "state": "South Carolina",
        "country_region": "United States",
        "lat": 32.7765,
        "lon": -79.9311,
        "pay": "80000",
        "pay_type": "Salary"
    },
    {
        "original_title": "ITSM Consultant",
        "formatted_title": "Itsm Consultant",
        "job_tier": "N/A",
        "city": "Louisville",
        "state": "Kentucky",
        "country_region": "United States",
        "lat": 38.2527,
        "lon": -85.7585,
        "pay": "113300",
        "pay_type": "Salary"
    },
    {
        "original_title": "Senior Software Engineer II",
        "formatted_title": "Software Engineer 3",
        "job_tier": "3",
        "city": "Cleveland",
        "state": "Ohio",
        "country_region": "United States",
        "lat": 41.4993,
        "lon": -81.6944,
        "pay": "165000",
        "pay_type": "Salary"
    },
    {
        "original_title": "Head of IT",
        "formatted_title": "Head Of IT",
        "job_tier": "N/A",
        "city": "London",
        "state": "N/A",
        "country_region": "UK",
        "lat": 51.5074,
        "lon": -0.1278,
        "pay": "86400",
        "pay_type": "Salary"
    },
    {
        "original_title": "Chief Information Officer & SVP Technology and Infrastructure Operations",
        "formatted_title": "Chief Information Officer & Svp Technology And Infrastructure Operations",
        "job_tier": "N/A",
        "city": "Los Angeles",
        "state": "California",
        "country_region": "United States",
        "lat": 34.0522,
        "lon": -118.2437,
        "pay": "285000",
        "pay_type": "Salary"
    },
    {
        "original_title": "ITSM Administration ",
        "formatted_title": "Itsm Administration",
        "job_tier": "N/A",
        "city": "Charleston",
        "state": "South Carolina",
        "country_region": "United States",
        "lat": 32.7765,
        "lon": -79.9311,
        "pay": "95000",
        "pay_type": "Salary"
    },
    {
        "original_title": "Systems Administrator",
        "formatted_title": "Systems Administrator",
        "job_tier": "N/A",
        "city": "Jarrell",
        "state": "Texas",
        "country_region": "United States",
        "lat": 30.8134,
        "lon": -97.598,
        "pay": "87550",
        "pay_type": "Salary"
    },
    {
        "original_title": "Systems engineer network operation center",
        "formatted_title": "Systems Engineer Network Operation Center",
        "job_tier": "N/A",
        "city": "Aiken united states",
        "state": "N/A",
        "country_region": "Unknown",
        "lat": 33.5604,
        "lon": -81.7196,
        "pay": "84715",
        "pay_type": "Salary"
    },
    {
        "original_title": "Helpdesk Tier 1",
        "formatted_title": "Helpdesk 1",
        "job_tier": "1",
        "city": "Lexington",
        "state": "Kentucky",
        "country_region": "United States",
        "lat": 38.0406,
        "lon": -84.5037,
        "pay": "20.9",
        "pay_type": "Hourly"
    },
    {
        "original_title": "Systems engineer ",
        "formatted_title": "Systems Engineer",
        "job_tier": "N/A",
        "city": "Portland",
        "state": "Oregon",
        "country_region": "United States",
        "lat": 45.5155,
        "lon": -122.6793,
        "pay": "160000",
        "pay_type": "Salary"
    },
    {
        "original_title": "Technical Support Analyst III",
        "formatted_title": "Technical Support Analysti 3",
        "job_tier": "3",
        "city": "Red Deer",
        "state": "N/A",
        "country_region": "Canada",
        "lat": 52.2681,
        "lon": -113.8112,
        "pay": "53000",
        "pay_type": "Salary"
    },
    {
        "original_title": "System Support Specialist ",
        "formatted_title": "System Support Specialist",
        "job_tier": "N/A",
        "city": "San Antonio",
        "state": "Texas",
        "country_region": "United States",
        "lat": 29.4241,
        "lon": -98.4936,
        "pay": "20.56",
        "pay_type": "Hourly"
    },
    {
        "original_title": "Manager",
        "formatted_title": "Manager",
        "job_tier": "N/A",
        "city": "Cork",
        "state": "N/A",
        "country_region": "Ireland",
        "lat": 51.8985,
        "lon": -8.4756,
        "pay": "86000",
        "pay_type": "Salary"
    },
    {
        "original_title": "Senior IT Operations Engineer ",
        "formatted_title": "IT Operations Engineer 3",
        "job_tier": "3",
        "city": "Dundee Scotland",
        "state": "Alba / Scotland",
        "country_region": "United States",
        "lat": 56.462,
        "lon": -2.9707,
        "pay": "56500",
        "pay_type": "Salary"
    },
    {
        "original_title": "Network Technician",
        "formatted_title": "Network Technician",
        "job_tier": "N/A",
        "city": "Milford",
        "state": "Connecticut",
        "country_region": "United States",
        "lat": 41.2307,
        "lon": -73.0645,
        "pay": "33",
        "pay_type": "Salary"
    },
    {
        "original_title": "Technical support specialist ",
        "formatted_title": "Technical Support Specialist",
        "job_tier": "N/A",
        "city": "Eaton United states",
        "state": "N/A",
        "country_region": "Unknown",
        "lat": 47.299,
        "lon": -122.3042,
        "pay": "41000",
        "pay_type": "Salary"
    },
    {
        "original_title": "Systems engineer ",
        "formatted_title": "Systems Engineer",
        "job_tier": "N/A",
        "city": "Remote",
        "state": "Kentucky",
        "country_region": "United States",
        "lat": 37.0221,
        "lon": -84.4529,
        "pay": "87000",
        "pay_type": "Salary"
    },
    {
        "original_title": "Team Lead - Printer and VTC Remotes",
        "formatted_title": "Team Lead - Printer And Vtc Remotes",
        "job_tier": "N/A",
        "city": "Jacksonville",
        "state": "Florida",
        "country_region": "United States",
        "lat": 30.3322,
        "lon": -81.6557,
        "pay": "40",
        "pay_type": "Hourly"
    },
    {
        "original_title": "Sys Admin",
        "formatted_title": "Sys Admin",
        "job_tier": "N/A",
        "city": "Mishawaka",
        "state": "Indiana",
        "country_region": "United States",
        "lat": 41.6611,
        "lon": -86.1587,
        "pay": "38.25",
        "pay_type": "Hourly"
    },
    {
        "original_title": "Mid backend developer",
        "formatted_title": "Mid Backend Developer 2",
        "job_tier": "2",
        "city": "Kaunas",
        "state": "N/A",
        "country_region": "Lithuania",
        "lat": 54.8985,
        "lon": 23.9036,
        "pay": "45500",
        "pay_type": "Salary"
    },
    {
        "original_title": "Technology Director",
        "formatted_title": "Technology Director",
        "job_tier": "N/A",
        "city": "Dillingham",
        "state": "Alaska",
        "country_region": "United States",
        "lat": 59.0397,
        "lon": -158.505,
        "pay": "114000",
        "pay_type": "Salary"
    },
    {
        "original_title": "IT Director",
        "formatted_title": "IT Director",
        "job_tier": "N/A",
        "city": "napolis IN",
        "state": "N/A",
        "country_region": "India",
        "lat": 39.7684,
        "lon": -86.1581,
        "pay": "75000",
        "pay_type": "Salary"
    },
    {
        "original_title": "IT Operations ",
        "formatted_title": "IT Operations",
        "job_tier": "N/A",
        "city": "Houston",
        "state": "Texas",
        "country_region": "United States",
        "lat": 29.7604,
        "lon": -95.3698,
        "pay": "60000",
        "pay_type": "Salary"
    },
    {
        "original_title": "Deputy Manager - SAP Basis",
        "formatted_title": "Deputy Manager - Sap Basis",
        "job_tier": "N/A",
        "city": "Karachi",
        "state": "N/A",
        "country_region": "Pakistan",
        "lat": 24.8607,
        "lon": 67.0011,
        "pay": "7440",
        "pay_type": "Salary"
    },
    {
        "original_title": "Technology Alignment Manager",
        "formatted_title": "Technology Alignment Manager",
        "job_tier": "N/A",
        "city": "Roswell",
        "state": "Georgia",
        "country_region": "United States",
        "lat": 34.0232,
        "lon": -84.3603,
        "pay": "104000",
        "pay_type": "Salary"
    },
    {
        "original_title": "Senior Systems Engineer ",
        "formatted_title": "Systems Engineer 3",
        "job_tier": "3",
        "city": "Saint Paul",
        "state": "Minnesota",
        "country_region": "United States",
        "lat": 44.9537,
        "lon": -93.09,
        "pay": "84000",
        "pay_type": "Salary"
    },
    {
        "original_title": "IT support technician",
        "formatted_title": "IT Support Technician",
        "job_tier": "N/A",
        "city": "",
        "state": "N/A",
        "country_region": "UK",
        "lat": 53.4831,
        "lon": -2.2397,
        "pay": "40000",
        "pay_type": "Salary"
    },
    {
        "original_title": "Cyber Security Supervisor",
        "formatted_title": "Cyber Security Supervisor",
        "job_tier": "N/A",
        "city": "Irvine",
        "state": "California",
        "country_region": "United States",
        "lat": 33.6846,
        "lon": -117.8265,
        "pay": "165000",
        "pay_type": "Salary"
    },
    {
        "original_title": "IT Security Manager",
        "formatted_title": "IT Security Manager",
        "job_tier": "N/A",
        "city": "Nashville",
        "state": "Tennessee",
        "country_region": "United States",
        "lat": 36.1627,
        "lon": -86.7816,
        "pay": "108900",
        "pay_type": "Salary"
    },
    {
        "original_title": "Software system engineer ",
        "formatted_title": "Software System Engineer",
        "job_tier": "N/A",
        "city": "Huntsville",
        "state": "Alabama",
        "country_region": "United States",
        "lat": 34.7304,
        "lon": -86.5861,
        "pay": "73000",
        "pay_type": "Salary"
    },
    {
        "original_title": "IT Support Manager ",
        "formatted_title": "IT Support Manager",
        "job_tier": "N/A",
        "city": "London",
        "state": "N/A",
        "country_region": "United Kingdom",
        "lat": 51.5074,
        "lon": -0.1278,
        "pay": "76000",
        "pay_type": "Salary"
    },
    {
        "original_title": "IT Support Specialist ",
        "formatted_title": "IT Support Specialist",
        "job_tier": "N/A",
        "city": "Reno",
        "state": "Nevada",
        "country_region": "United States",
        "lat": 39.5296,
        "lon": -119.8138,
        "pay": "28.08",
        "pay_type": "Hourly"
    },
    {
        "original_title": "Azure Administrator",
        "formatted_title": "Azure Administrator",
        "job_tier": "N/A",
        "city": "Valdosta",
        "state": "Georgia",
        "country_region": "United States",
        "lat": 30.8327,
        "lon": -83.2785,
        "pay": "118000",
        "pay_type": "Salary"
    },
    {
        "original_title": "Senior Salesforce Administrator",
        "formatted_title": "Salesforce Administrator 3",
        "job_tier": "3",
        "city": "New York City",
        "state": "N/A",
        "country_region": "United States of America",
        "lat": 40.7128,
        "lon": -74.006,
        "pay": "173000",
        "pay_type": "Salary"
    },
    {
        "original_title": "Technical Consultant (Tier 2) support",
        "formatted_title": "Technical Consultant (Tier 2) Support 2",
        "job_tier": "2",
        "city": "Dallas",
        "state": "Texas",
        "country_region": "United States",
        "lat": 32.7767,
        "lon": -96.797,
        "pay": "65000",
        "pay_type": "Salary"
    },
    {
        "original_title": "Technical expert",
        "formatted_title": "Technical Expert",
        "job_tier": "N/A",
        "city": "Newcastle",
        "state": "N/A",
        "country_region": "Australia",
        "lat": -32.9267,
        "lon": 151.7789,
        "pay": "65100",
        "pay_type": "Salary"
    },
    {
        "original_title": "Field Services Tech",
        "formatted_title": "Field Services Tech",
        "job_tier": "N/A",
        "city": "Manhattan",
        "state": "Kansas",
        "country_region": "United States",
        "lat": 39.1836,
        "lon": -96.5717,
        "pay": "55000",
        "pay_type": "Salary"
    },
    {
        "original_title": "network administrator",
        "formatted_title": "Network Administrator",
        "job_tier": "N/A",
        "city": "kennewick",
        "state": "Washington",
        "country_region": "United States",
        "lat": 46.2112,
        "lon": -119.1372,
        "pay": "75000",
        "pay_type": "Salary"
    },
    {
        "original_title": "Network Security Engineer ",
        "formatted_title": "Network Security Engineer",
        "job_tier": "N/A",
        "city": "Pittsburgh  Area.",
        "state": "Pennsylvania",
        "country_region": "United States",
        "lat": 40.4406,
        "lon": -79.9959,
        "pay": "115",
        "pay_type": "Salary"
    },
    {
        "original_title": "IT/OT Tech",
        "formatted_title": "IT/Ot Tech",
        "job_tier": "N/A",
        "city": "",
        "state": "N/A",
        "country_region": "Canada",
        "lat": 56.1304,
        "lon": -106.3468,
        "pay": "75000",
        "pay_type": "Salary"
    },
    {
        "original_title": "IT Support Engineer",
        "formatted_title": "IT Support Engineer",
        "job_tier": "N/A",
        "city": "Copenhagen",
        "state": "N/A",
        "country_region": "Denmark",
        "lat": 55.6761,
        "lon": 12.5683,
        "pay": "3609",
        "pay_type": "Hourly"
    },
    {
        "original_title": "Information Technology ",
        "formatted_title": "Information Technology",
        "job_tier": "N/A",
        "city": "Elkin Nac",
        "state": "N/A",
        "country_region": "Unknown",
        "lat": 31.2262,
        "lon": -94.9368,
        "pay": "20",
        "pay_type": "Hourly"
    },
    {
        "original_title": "Technical Specialist 2",
        "formatted_title": "Technical Specialist 2",
        "job_tier": "2",
        "city": "Dearing",
        "state": "Kansas",
        "country_region": "United States",
        "lat": 37.0902,
        "lon": -95.7129,
        "pay": "168000",
        "pay_type": "Salary"
    },
    {
        "original_title": "Telecommunications Analyst Tier II.",
        "formatted_title": "Telecommunications Analyst Tier. 2",
        "job_tier": "2",
        "city": "Baltimore",
        "state": "Maryland",
        "country_region": "United States",
        "lat": 39.2904,
        "lon": -76.6122,
        "pay": "20",
        "pay_type": "Hourly"
    },
    {
        "original_title": "IT Manager",
        "formatted_title": "IT Manager",
        "job_tier": "N/A",
        "city": "Milwaukee",
        "state": "Wisconsin",
        "country_region": "United States",
        "lat": 43.0389,
        "lon": -87.9065,
        "pay": "101000",
        "pay_type": "Salary"
    },
    {
        "original_title": "Senior Security Engineer",
        "formatted_title": "Security Engineer 3",
        "job_tier": "3",
        "city": "Milwaukee",
        "state": "Wisconsin",
        "country_region": "United States",
        "lat": 43.0389,
        "lon": -87.9065,
        "pay": "127500",
        "pay_type": "Salary"
    },
    {
        "original_title": "DBA",
        "formatted_title": "Dba",
        "job_tier": "N/A",
        "city": "Omaha",
        "state": "N/A",
        "country_region": "Unknown",
        "lat": 41.2524,
        "lon": -95.998,
        "pay": "85000",
        "pay_type": "Salary"
    },
    {
        "original_title": "Security Consultant",
        "formatted_title": "Security Consultant",
        "job_tier": "N/A",
        "city": "Fort Worth Texas",
        "state": "N/A",
        "country_region": "Unknown",
        "lat": 32.7555,
        "lon": -97.3308,
        "pay": "117000",
        "pay_type": "Salary"
    },
    {
        "original_title": "Help Desk Tier 2",
        "formatted_title": "Help Desk 2",
        "job_tier": "2",
        "city": "Los Angeles",
        "state": "N/A",
        "country_region": "Unknown",
        "lat": 34.0522,
        "lon": -118.2437,
        "pay": "39",
        "pay_type": "Hourly"
    },
    {
        "original_title": "MIcrocomputer Desktop Support",
        "formatted_title": "Microcomputer Desktop Support",
        "job_tier": "N/A",
        "city": "San Diego",
        "state": "California",
        "country_region": "United States",
        "lat": 32.7157,
        "lon": -117.1611,
        "pay": "109408.41",
        "pay_type": "Salary"
    },
    {
        "original_title": "CTO",
        "formatted_title": "Cto",
        "job_tier": "N/A",
        "city": "Nashville",
        "state": "Tennessee",
        "country_region": "United States",
        "lat": 36.1627,
        "lon": -86.7816,
        "pay": "31.61",
        "pay_type": "Hourly"
    },
    {
        "original_title": "Senior Application Support Analyst",
        "formatted_title": "Application Support Analyst 3",
        "job_tier": "3",
        "city": "",
        "state": "N/A",
        "country_region": "Mexico",
        "lat": 23.6345,
        "lon": -102.5528,
        "pay": "31450.00",
        "pay_type": "Salary"
    },
    {
        "original_title": "IT Administrator",
        "formatted_title": "IT Administrator",
        "job_tier": "N/A",
        "city": "Edmonton",
        "state": "N/A",
        "country_region": "Canada",
        "lat": 53.5461,
        "lon": -113.4938,
        "pay": "47678",
        "pay_type": "Salary"
    },
    {
        "original_title": "On-site tech level 1",
        "formatted_title": "On-Site Tech 1",
        "job_tier": "1",
        "city": "Peoria Maricopa",
        "state": "Arizona",
        "country_region": "United States",
        "lat": 33.5806,
        "lon": -112.2373,
        "pay": "25.55",
        "pay_type": "Hourly"
    },
    {
        "original_title": "Systems Administrator ",
        "formatted_title": "Systems Administrator",
        "job_tier": "N/A",
        "city": "New Orleans",
        "state": "Louisiana",
        "country_region": "United States",
        "lat": 29.9511,
        "lon": -90.0715,
        "pay": "70000",
        "pay_type": "Salary"
    },
    {
        "original_title": "Senior Infrastructure Engineer",
        "formatted_title": "Infrastructure Engineer 3",
        "job_tier": "3",
        "city": "Columbus",
        "state": "Ohio",
        "country_region": "United States",
        "lat": 39.9612,
        "lon": -82.9988,
        "pay": "110000",
        "pay_type": "Salary"
    },
    {
        "original_title": "Cloud Infrastructure Engineer ",
        "formatted_title": "Cloud Infrastructure Engineer",
        "job_tier": "N/A",
        "city": "Gauteng",
        "state": "N/A",
        "country_region": "South Africa",
        "lat": -26.2708,
        "lon": 28.1123,
        "pay": "18947",
        "pay_type": "Salary"
    },
    {
        "original_title": "It Support Specialist",
        "formatted_title": "IT Support Specialist",
        "job_tier": "N/A",
        "city": "Fort Worth",
        "state": "Texas",
        "country_region": "United States",
        "lat": 32.7555,
        "lon": -97.3308,
        "pay": "70500",
        "pay_type": "Salary"
    },
    {
        "original_title": "Technical Support Specialist III",
        "formatted_title": "Technical Support Specialisti 3",
        "job_tier": "3",
        "city": "Sedalia",
        "state": "Missouri",
        "country_region": "United States",
        "lat": 38.7045,
        "lon": -93.2283,
        "pay": "20.49",
        "pay_type": "Hourly"
    },
    {
        "original_title": "Helpdesk analyst",
        "formatted_title": "Helpdesk Analyst",
        "job_tier": "N/A",
        "city": "Pittsburgh",
        "state": "Pennsylvania",
        "country_region": "United States",
        "lat": 40.4406,
        "lon": -79.9959,
        "pay": "33",
        "pay_type": "Hourly"
    },
    {
        "original_title": "Systems Operator ",
        "formatted_title": "Systems Operator",
        "job_tier": "N/A",
        "city": "Clarksville",
        "state": "Tennessee",
        "country_region": "United States",
        "lat": 36.5298,
        "lon": -87.3595,
        "pay": "22.93",
        "pay_type": "Hourly"
    },
    {
        "original_title": "Lead Field Tech",
        "formatted_title": "Lead Field Tech",
        "job_tier": "N/A",
        "city": "Nyc",
        "state": "N/A",
        "country_region": "Unknown",
        "lat": 40.7128,
        "lon": -74.006,
        "pay": "100000",
        "pay_type": "Salary"
    },
    {
        "original_title": "IT Team Leader",
        "formatted_title": "IT Team Leader",
        "job_tier": "N/A",
        "city": "Cape Town",
        "state": "N/A",
        "country_region": "South Africa",
        "lat": -33.9249,
        "lon": 18.4241,
        "pay": "15867",
        "pay_type": "Salary"
    },
    {
        "original_title": "Information Support Specialist",
        "formatted_title": "Information Support Specialist",
        "job_tier": "N/A",
        "city": "Dallas texas",
        "state": "N/A",
        "country_region": "Unknown",
        "lat": 32.7767,
        "lon": -96.797,
        "pay": "31.71",
        "pay_type": "Hourly"
    },
    {
        "original_title": "Project Manager",
        "formatted_title": "Project Manager",
        "job_tier": "N/A",
        "city": "Layton",
        "state": "Utah",
        "country_region": "United States",
        "lat": 41.0602,
        "lon": -111.971,
        "pay": "95000",
        "pay_type": "Salary"
    },
    {
        "original_title": "IT Support Specialist",
        "formatted_title": "IT Support Specialist",
        "job_tier": "N/A",
        "city": "Tulsa",
        "state": "Oklahoma",
        "country_region": "United States",
        "lat": 36.154,
        "lon": -95.9928,
        "pay": "21.63",
        "pay_type": "Hourly"
    },
    {
        "original_title": "Technology Specialist ",
        "formatted_title": "Technology Specialist",
        "job_tier": "N/A",
        "city": "Marshall",
        "state": "Michigan",
        "country_region": "United States",
        "lat": 42.2711,
        "lon": -84.9594,
        "pay": "18",
        "pay_type": "Hourly"
    },
    {
        "original_title": "It Support Desk Team Leader ",
        "formatted_title": "IT Support Desk Team Leader",
        "job_tier": "N/A",
        "city": "Bristol",
        "state": "N/A",
        "country_region": "UK",
        "lat": 51.4545,
        "lon": -2.5879,
        "pay": "56000",
        "pay_type": "Salary"
    },
    {
        "original_title": "IT Branch Technician",
        "formatted_title": "IT Branch Technician",
        "job_tier": "N/A",
        "city": "Wilmington",
        "state": "North Carolina",
        "country_region": "United States",
        "lat": 34.2104,
        "lon": -77.8868,
        "pay": "72500",
        "pay_type": "Salary"
    },
    {
        "original_title": "Network Administrator",
        "formatted_title": "Network Administrator",
        "job_tier": "N/A",
        "city": "Walnut Creek",
        "state": "California",
        "country_region": "United States",
        "lat": 37.9101,
        "lon": -122.0652,
        "pay": "93",
        "pay_type": "Hourly"
    },
    {
        "original_title": "Support Center Analyst",
        "formatted_title": "Support Center Analyst",
        "job_tier": "N/A",
        "city": "Grand Rapids",
        "state": "Michigan",
        "country_region": "United States",
        "lat": 42.9634,
        "lon": -85.6681,
        "pay": "17.79",
        "pay_type": "Hourly"
    },
    {
        "original_title": "Network Administrator",
        "formatted_title": "Network Administrator",
        "job_tier": "N/A",
        "city": "Portland",
        "state": "Oregon",
        "country_region": "United States",
        "lat": 45.5051,
        "lon": -122.675,
        "pay": "102000",
        "pay_type": "Salary"
    },
    {
        "original_title": "User Support Specialist",
        "formatted_title": "User Support Specialist",
        "job_tier": "N/A",
        "city": "Frederick",
        "state": "Maryland",
        "country_region": "United States",
        "lat": 39.4143,
        "lon": -77.4105,
        "pay": "27.07221791.54",
        "pay_type": "Salary"
    },
    {
        "original_title": "Systems Administrator",
        "formatted_title": "Systems Administrator",
        "job_tier": "N/A",
        "city": "Nashville",
        "state": "Tennessee",
        "country_region": "United States",
        "lat": 36.1627,
        "lon": -86.7816,
        "pay": "29",
        "pay_type": "Hourly"
    },
    {
        "original_title": "Cloud Applications Specialist II",
        "formatted_title": "Cloud Applications Specialist 2",
        "job_tier": "2",
        "city": "USA",
        "state": "N/A",
        "country_region": "Georgia",
        "lat": 32.1656,
        "lon": -82.9001,
        "pay": "118965",
        "pay_type": "Salary"
    },
    {
        "original_title": "Director of Information Technology",
        "formatted_title": "Director Of Information Technology",
        "job_tier": "N/A",
        "city": "Las Vegas",
        "state": "N/A",
        "country_region": "Unknown",
        "lat": 36.1699,
        "lon": -115.1398,
        "pay": "103000",
        "pay_type": "Salary"
    },
    {
        "original_title": "Desktop Systems Administrator II",
        "formatted_title": "Desktop Systems Administrator 2",
        "job_tier": "2",
        "city": "Sioux Falls",
        "state": "South Dakota",
        "country_region": "United States",
        "lat": 43.5499,
        "lon": -96.7003,
        "pay": "67000",
        "pay_type": "Salary"
    },
    {
        "original_title": "IT Helpdesk Operator",
        "formatted_title": "IT Helpdesk Operator",
        "job_tier": "N/A",
        "city": "Valletta",
        "state": "N/A",
        "country_region": "Malta",
        "lat": 35.8989,
        "lon": 14.5146,
        "pay": "30000",
        "pay_type": "Salary"
    },
    {
        "original_title": "UK IT Operations Engineer",
        "formatted_title": "Uk IT Operations Engineer",
        "job_tier": "N/A",
        "city": "Warwick",
        "state": "N/A",
        "country_region": "Unknown",
        "lat": 41.7001,
        "lon": -71.4162,
        "pay": "50500",
        "pay_type": "Salary"
    },
    {
        "original_title": "IT Director",
        "formatted_title": "IT Director",
        "job_tier": "N/A",
        "city": "Houston",
        "state": "Texas",
        "country_region": "United States",
        "lat": 29.7604,
        "lon": -95.3698,
        "pay": "70000",
        "pay_type": "Salary"
    },
    {
        "original_title": "System Administrator",
        "formatted_title": "System Administrator",
        "job_tier": "N/A",
        "city": "",
        "state": "N/A",
        "country_region": "Philippines",
        "lat": 13.4125,
        "lon": 122.5632,
        "pay": "12830",
        "pay_type": "Salary"
    },
    {
        "original_title": "Teir 1 technician",
        "formatted_title": "Technician 1",
        "job_tier": "1",
        "city": "Orange united states",
        "state": "N/A",
        "country_region": "Unknown",
        "lat": 33.7879,
        "lon": -117.8531,
        "pay": "30",
        "pay_type": "Hourly"
    },
    {
        "original_title": "Systems Administrator ",
        "formatted_title": "Systems Administrator",
        "job_tier": "N/A",
        "city": "Lindsay Tulare",
        "state": "N/A",
        "country_region": "Unknown",
        "lat": 36.1974,
        "lon": -119.0922,
        "pay": "6000095000.870002.5.",
        "pay_type": "Salary"
    },
    {
        "original_title": "Engineer",
        "formatted_title": "Engineer",
        "job_tier": "N/A",
        "city": "Stevens Point",
        "state": "Wisconsin",
        "country_region": "United States",
        "lat": 44.5236,
        "lon": -89.5746,
        "pay": "44000",
        "pay_type": "Hourly"
    },
    {
        "original_title": "Technology Consultant",
        "formatted_title": "Technology Consultant",
        "job_tier": "N/A",
        "city": "Boston",
        "state": "Massachusetts",
        "country_region": "United States",
        "lat": 42.3601,
        "lon": -71.0589,
        "pay": "64697",
        "pay_type": "Salary"
    },
    {
        "original_title": "IT Manager",
        "formatted_title": "IT Manager",
        "job_tier": "N/A",
        "city": "Sioux Falls",
        "state": "South Dakota",
        "country_region": "United States",
        "lat": 43.5446,
        "lon": -96.7311,
        "pay": "110000",
        "pay_type": "Salary"
    },
    {
        "original_title": "Service Desk Technician",
        "formatted_title": "Service Desk Technician",
        "job_tier": "N/A",
        "city": "Mount Holly",
        "state": "New Jersey",
        "country_region": "United States",
        "lat": 39.9943,
        "lon": -74.816,
        "pay": "48000",
        "pay_type": "Hourly"
    },
    {
        "original_title": "Head of IT",
        "formatted_title": "Head Of IT",
        "job_tier": "N/A",
        "city": "Chelmsford",
        "state": "N/A",
        "country_region": "Unknown",
        "lat": 51.7356,
        "lon": 0.468,
        "pay": "82150",
        "pay_type": "Salary"
    },
    {
        "original_title": "Web Support Technician",
        "formatted_title": "Web Support Technician",
        "job_tier": "N/A",
        "city": "Auckland NZ",
        "state": "N/A",
        "country_region": "Unknown",
        "lat": -36.8485,
        "lon": 174.7633,
        "pay": "25.15",
        "pay_type": "Hourly"
    },
    {
        "original_title": "Teir 2 support",
        "formatted_title": "Support 2",
        "job_tier": "2",
        "city": "St. Louis united states of America",
        "state": "N/A",
        "country_region": "Unknown",
        "lat": 38.627,
        "lon": -90.1994,
        "pay": "20",
        "pay_type": "Hourly"
    },
    {
        "original_title": "meat industrial plant IT Tecnician",
        "formatted_title": "Meat Industrial Plant IT Tecnician",
        "job_tier": "N/A",
        "city": "Barcelona",
        "state": "N/A",
        "country_region": "Spain",
        "lat": 41.3851,
        "lon": 2.1734,
        "pay": "37920",
        "pay_type": "Salary"
    },
    {
        "original_title": "IT Technician",
        "formatted_title": "IT Technician",
        "job_tier": "N/A",
        "city": "Spokane",
        "state": "Washington",
        "country_region": "United States",
        "lat": 47.6588,
        "lon": -117.426,
        "pay": "32.14",
        "pay_type": "Hourly"
    },
    {
        "original_title": "Computer Operator",
        "formatted_title": "Computer Operator",
        "job_tier": "N/A",
        "city": "Phoenix",
        "state": "Arizona",
        "country_region": "United States",
        "lat": 33.4484,
        "lon": -112.074,
        "pay": "24.39",
        "pay_type": "Hourly"
    },
    {
        "original_title": "OnSite IT Engineer ",
        "formatted_title": "Onsite IT Engineer",
        "job_tier": "N/A",
        "city": "Scarborough",
        "state": "N/A",
        "country_region": "UK",
        "lat": 54.2831,
        "lon": -0.3997,
        "pay": "35380",
        "pay_type": "Salary"
    },
    {
        "original_title": "Systems Support",
        "formatted_title": "Systems Support",
        "job_tier": "N/A",
        "city": "Cape Town",
        "state": "N/A",
        "country_region": "South Africa",
        "lat": -33.9249,
        "lon": 18.4241,
        "pay": "10",
        "pay_type": "Hourly"
    },
    {
        "original_title": "Managing Partner",
        "formatted_title": "Managing Partner",
        "job_tier": "N/A",
        "city": "Wilmington",
        "state": "North Carolina",
        "country_region": "United States",
        "lat": 34.2104,
        "lon": -77.8868,
        "pay": "70",
        "pay_type": "Salary"
    },
    {
        "original_title": "Head of IT",
        "formatted_title": "Head Of IT",
        "job_tier": "N/A",
        "city": "Carlisle",
        "state": "N/A",
        "country_region": "UK",
        "lat": 54.8924,
        "lon": -2.932,
        "pay": "90000",
        "pay_type": "Salary"
    },
    {
        "original_title": "Systems Administrator",
        "formatted_title": "Systems Administrator",
        "job_tier": "N/A",
        "city": "Little Rock",
        "state": "Arkansas",
        "country_region": "United States",
        "lat": 34.7465,
        "lon": -92.2896,
        "pay": "65000",
        "pay_type": "Salary"
    },
    {
        "original_title": "ICT Contract Manager ",
        "formatted_title": "Ict Contract Manager",
        "job_tier": "N/A",
        "city": "Cumbria",
        "state": "N/A",
        "country_region": "Unknown",
        "lat": 54.8924,
        "lon": -2.932,
        "pay": "62500",
        "pay_type": "Salary"
    },
    {
        "original_title": "Service desk",
        "formatted_title": "Service Desk",
        "job_tier": "N/A",
        "city": "",
        "state": "N/A",
        "country_region": "Poland",
        "lat": 51.9194,
        "lon": 19.1451,
        "pay": "12",
        "pay_type": "Salary"
    },
    {
        "original_title": "Data and Reporting Analyst",
        "formatted_title": "Data And Reporting Analyst",
        "job_tier": "N/A",
        "city": "Clarks Green",
        "state": "Pennsylvania",
        "country_region": "United States",
        "lat": 41.5008,
        "lon": -75.6972,
        "pay": "70000",
        "pay_type": "Salary"
    },
    {
        "original_title": "Support Analyst II",
        "formatted_title": "Support Analyst 2",
        "job_tier": "2",
        "city": "Mainland",
        "state": "Indiana",
        "country_region": "United States",
        "lat": 40.4282,
        "lon": -86.9134,
        "pay": "72245.94",
        "pay_type": "Salary"
    },
    {
        "original_title": "Technical Support Engineer",
        "formatted_title": "Technical Support Engineer",
        "job_tier": "N/A",
        "city": "Philadelphia",
        "state": "N/A",
        "country_region": "Unknown",
        "lat": 39.9526,
        "lon": -75.1652,
        "pay": "61000",
        "pay_type": "Salary"
    },
    {
        "original_title": "NOC tech",
        "formatted_title": "Noc Tech",
        "job_tier": "N/A",
        "city": "Orlando",
        "state": "N/A",
        "country_region": "Unknown",
        "lat": 28.5383,
        "lon": -81.3792,
        "pay": "31.25",
        "pay_type": "Hourly"
    },
    {
        "original_title": "Production Support Specialist ",
        "formatted_title": "Production Support Specialist",
        "job_tier": "N/A",
        "city": "Laramie",
        "state": "Wyoming",
        "country_region": "United States",
        "lat": 41.3114,
        "lon": -105.5911,
        "pay": "49000",
        "pay_type": "Salary"
    },
    {
        "original_title": "System engineer ",
        "formatted_title": "System Engineer",
        "job_tier": "N/A",
        "city": "Los Angeles",
        "state": "N/A",
        "country_region": "Unknown",
        "lat": 34.0522,
        "lon": -118.2437,
        "pay": "110000",
        "pay_type": "Salary"
    },
    {
        "original_title": "Senior IT Support Technician ",
        "formatted_title": "IT Support Technician 3",
        "job_tier": "3",
        "city": "",
        "state": "N/A",
        "country_region": "South Africa",
        "lat": -30.5595,
        "lon": 22.9375,
        "pay": "156",
        "pay_type": "Salary"
    },
    {
        "original_title": "IT Analyst",
        "formatted_title": "IT Analyst",
        "job_tier": "N/A",
        "city": "Hartford",
        "state": "Connecticut",
        "country_region": "United States",
        "lat": 41.7658,
        "lon": -72.6734,
        "pay": "59",
        "pay_type": "Hourly"
    },
    {
        "original_title": "It support technician",
        "formatted_title": "IT Support Technician",
        "job_tier": "N/A",
        "city": "Watsonville",
        "state": "California",
        "country_region": "United States",
        "lat": 36.9102,
        "lon": -121.7569,
        "pay": "29",
        "pay_type": "Hourly"
    },
    {
        "original_title": "Information Security Engineer",
        "formatted_title": "Information Security Engineer",
        "job_tier": "N/A",
        "city": "Mission Viejo",
        "state": "California",
        "country_region": "United States",
        "lat": 33.6,
        "lon": -117.6719,
        "pay": "125000",
        "pay_type": "Salary"
    },
    {
        "original_title": "Healthcare IT Analyst",
        "formatted_title": "Healthcare IT Analyst",
        "job_tier": "N/A",
        "city": "Eugene",
        "state": "Oregon",
        "country_region": "United States",
        "lat": 44.0521,
        "lon": -123.0868,
        "pay": "75000",
        "pay_type": "Salary"
    },
    {
        "original_title": "Cybersecurity Engineer",
        "formatted_title": "Cybersecurity Engineer",
        "job_tier": "N/A",
        "city": "Newport",
        "state": "New Jersey",
        "country_region": "United States",
        "lat": 39.9289,
        "lon": -74.9596,
        "pay": "96000",
        "pay_type": "Salary"
    },
    {
        "original_title": "Junior Application Support Analyst",
        "formatted_title": "Application Support Analyst 1",
        "job_tier": "1",
        "city": "Frederick",
        "state": "Maryland",
        "country_region": "United States",
        "lat": 39.4143,
        "lon": -77.4105,
        "pay": "60000",
        "pay_type": "Salary"
    },
    {
        "original_title": "Assistant Computer Systems Administrator ",
        "formatted_title": "Assistant Computer Systems Administrator",
        "job_tier": "N/A",
        "city": "Tulsa",
        "state": "Oklahoma",
        "country_region": "United States",
        "lat": 36.154,
        "lon": -95.9928,
        "pay": "49905.00",
        "pay_type": "Salary"
    },
    {
        "original_title": "Technical Operations Analyst",
        "formatted_title": "Technical Operations Analyst",
        "job_tier": "N/A",
        "city": "Markham Ontario",
        "state": "N/A",
        "country_region": "Unknown",
        "lat": 43.8561,
        "lon": -79.337,
        "pay": "45000",
        "pay_type": "Salary"
    },
    {
        "original_title": "IS Supervisor",
        "formatted_title": "Is Supervisor",
        "job_tier": "N/A",
        "city": "",
        "state": "South Dakota",
        "country_region": "United States",
        "lat": 43.9695,
        "lon": -99.9018,
        "pay": "106000",
        "pay_type": "Salary"
    },
    {
        "original_title": "Senior analyst",
        "formatted_title": "Analyst 3",
        "job_tier": "3",
        "city": "Chandler",
        "state": "Arizona",
        "country_region": "United States",
        "lat": 33.3062,
        "lon": -111.8413,
        "pay": "5350024.50",
        "pay_type": "Salary"
    },
    {
        "original_title": "Sr. Service Delivery Manager",
        "formatted_title": "Service Delivery Manager 3",
        "job_tier": "3",
        "city": "",
        "state": "N/A",
        "country_region": "Philippines",
        "lat": 13.4125,
        "lon": 122.5632,
        "pay": "60000",
        "pay_type": "Salary"
    },
    {
        "original_title": "Technician III",
        "formatted_title": "Techniciani 3",
        "job_tier": "3",
        "city": "Port Townsend",
        "state": "Washington",
        "country_region": "United States",
        "lat": 48.117,
        "lon": -122.7594,
        "pay": "22",
        "pay_type": "Hourly"
    },
    {
        "original_title": "Material Handler ",
        "formatted_title": "Material Handler",
        "job_tier": "N/A",
        "city": "Sterling Heights",
        "state": "Michigan",
        "country_region": "United States",
        "lat": 42.5803,
        "lon": -83.0302,
        "pay": "35.26",
        "pay_type": "Hourly"
    },
    {
        "original_title": "System Administrator",
        "formatted_title": "System Administrator",
        "job_tier": "N/A",
        "city": "Biloxi",
        "state": "Mississippi",
        "country_region": "United States",
        "lat": 30.396,
        "lon": -88.8853,
        "pay": "38.61",
        "pay_type": "Hourly"
    },
    {
        "original_title": "Sr Systems Administrator ",
        "formatted_title": "Systems Administrator 3",
        "job_tier": "3",
        "city": "Livermore",
        "state": "California",
        "country_region": "United States",
        "lat": 37.6819,
        "lon": -121.768,
        "pay": "95000",
        "pay_type": "Salary"
    },
    {
        "original_title": "It consultant ",
        "formatted_title": "IT Consultant",
        "job_tier": "N/A",
        "city": "Lansing",
        "state": "Michigan",
        "country_region": "United States",
        "lat": 42.7325,
        "lon": -84.5555,
        "pay": "25",
        "pay_type": "Hourly"
    },
    {
        "original_title": "Infrastructure Engineer",
        "formatted_title": "Infrastructure Engineer",
        "job_tier": "N/A",
        "city": "",
        "state": "Nebraska",
        "country_region": "United States",
        "lat": 41.4925,
        "lon": -99.9018,
        "pay": "102000",
        "pay_type": "Salary"
    },
    {
        "original_title": "Senior IT Systems Administrator",
        "formatted_title": "IT Systems Administrator 3",
        "job_tier": "3",
        "city": "Elgin Scotland",
        "state": "Alba / Scotland",
        "country_region": "United States",
        "lat": 56.4637,
        "lon": -2.97,
        "pay": "56875",
        "pay_type": "Salary"
    },
    {
        "original_title": "System Admin",
        "formatted_title": "System Admin",
        "job_tier": "N/A",
        "city": "Halifax",
        "state": "N/A",
        "country_region": "Canada",
        "lat": 44.6488,
        "lon": -63.5752,
        "pay": "65000",
        "pay_type": "Salary"
    },
    {
        "original_title": "vCIO",
        "formatted_title": "Vcio",
        "job_tier": "N/A",
        "city": "Houston",
        "state": "Texas",
        "country_region": "United States",
        "lat": 29.7604,
        "lon": -95.3698,
        "pay": "120000",
        "pay_type": "Salary"
    },
    {
        "original_title": "IT Manager",
        "formatted_title": "IT Manager",
        "job_tier": "N/A",
        "city": "England",
        "state": "N/A",
        "country_region": "Unknown",
        "lat": 52.3555,
        "lon": -1.1743,
        "pay": "36000",
        "pay_type": "Salary"
    },
    {
        "original_title": "Technical Services Lead",
        "formatted_title": "Technical Services Lead",
        "job_tier": "N/A",
        "city": "Columbus",
        "state": "Ohio",
        "country_region": "United States",
        "lat": 39.9623,
        "lon": -82.9988,
        "pay": "69000",
        "pay_type": "Salary"
    },
    {
        "original_title": "Cloud Engineer",
        "formatted_title": "Cloud Engineer",
        "job_tier": "N/A",
        "city": "Work from Home",
        "state": "N/A",
        "country_region": "Unknown",
        "lat": 37.0902,
        "lon": -95.7129,
        "pay": "81500",
        "pay_type": "Salary"
    },
    {
        "original_title": "IT consultant",
        "formatted_title": "IT Consultant",
        "job_tier": "N/A",
        "city": "Saguenay QC",
        "state": "N/A",
        "country_region": "Unknown",
        "lat": 48.4284,
        "lon": -71.0689,
        "pay": "90",
        "pay_type": "Hourly"
    },
    {
        "original_title": "Global Head of IT",
        "formatted_title": "Global Head Of IT",
        "job_tier": "N/A",
        "city": "Douglas Isle of Man",
        "state": "",
        "country_region": "United States",
        "lat": 54.2361,
        "lon": -4.5481,
        "pay": "148750",
        "pay_type": "Salary"
    },
    {
        "original_title": "Customer Care and IT Support",
        "formatted_title": "Customer Care And IT Support",
        "job_tier": "N/A",
        "city": "Hamilton",
        "state": "N/A",
        "country_region": "New Zealand",
        "lat": -37.787,
        "lon": 175.2793,
        "pay": "16.08",
        "pay_type": "Hourly"
    },
    {
        "original_title": "SR IT Coordinator ",
        "formatted_title": "IT Coordinator 3",
        "job_tier": "3",
        "city": "Salta",
        "state": "N/A",
        "country_region": "Argentina",
        "lat": -24.7829,
        "lon": -65.4232,
        "pay": "30000",
        "pay_type": "Salary"
    },
    {
        "original_title": "IT technician",
        "formatted_title": "IT Technician",
        "job_tier": "N/A",
        "city": "Florence",
        "state": "N/A",
        "country_region": "Italy",
        "lat": 43.7696,
        "lon": 11.2558,
        "pay": "25000",
        "pay_type": "Salary"
    },
    {
        "original_title": "Helpdesk technician",
        "formatted_title": "Helpdesk Technician",
        "job_tier": "N/A",
        "city": "Doha",
        "state": "N/A",
        "country_region": "Qatar",
        "lat": 25.2854,
        "lon": 51.531,
        "pay": "7.1",
        "pay_type": "Salary"
    },
    {
        "original_title": "IT Manager",
        "formatted_title": "IT Manager",
        "job_tier": "N/A",
        "city": "Toledo",
        "state": "Ohio",
        "country_region": "United States",
        "lat": 41.6528,
        "lon": -83.5379,
        "pay": "85000",
        "pay_type": "Salary"
    },
    {
        "original_title": "IT Specialist II",
        "formatted_title": "IT Specialist 2",
        "job_tier": "2",
        "city": "Peoria",
        "state": "Illinois",
        "country_region": "United States",
        "lat": 40.6936,
        "lon": -89.5889,
        "pay": "55000",
        "pay_type": "Salary"
    },
    {
        "original_title": "SysAdmin",
        "formatted_title": "Sysadmin",
        "job_tier": "N/A",
        "city": "Syracuse",
        "state": "New York",
        "country_region": "United States",
        "lat": 43.0481,
        "lon": -76.1474,
        "pay": "78000",
        "pay_type": "Salary"
    },
    {
        "original_title": "Systems Engineer",
        "formatted_title": "Systems Engineer",
        "job_tier": "N/A",
        "city": "Buffalo united states",
        "state": "N/A",
        "country_region": "Unknown",
        "lat": 42.8864,
        "lon": -78.8784,
        "pay": "91000",
        "pay_type": "Salary"
    },
    {
        "original_title": "Lead technical specialist ",
        "formatted_title": "Lead Technical Specialist",
        "job_tier": "N/A",
        "city": "Wales",
        "state": "N/A",
        "country_region": "Unknown",
        "lat": 52.1307,
        "lon": -3.7837,
        "pay": "75000",
        "pay_type": "Salary"
    },
    {
        "original_title": "IT Support Officer",
        "formatted_title": "IT Support Officer",
        "job_tier": "N/A",
        "city": "Wollongong",
        "state": "N/A",
        "country_region": "Australia",
        "lat": -34.4278,
        "lon": 150.8931,
        "pay": "51000",
        "pay_type": "Salary"
    },
    {
        "original_title": "Network Technician ",
        "formatted_title": "Network Technician",
        "job_tier": "N/A",
        "city": "Port of  Trinidad and Tobago",
        "state": "N/A",
        "country_region": "Spain",
        "lat": 10.6549,
        "lon": -61.5019,
        "pay": "17000.00",
        "pay_type": "Salary"
    },
    {
        "original_title": "network admin",
        "formatted_title": "Network Admin",
        "job_tier": "N/A",
        "city": "Kalamazoo united states",
        "state": "N/A",
        "country_region": "Unknown",
        "lat": 42.2917,
        "lon": -85.5872,
        "pay": "80",
        "pay_type": "Hourly"
    },
    {
        "original_title": "Fintech Technical Analyst",
        "formatted_title": "Fintech Technical Analyst",
        "job_tier": "N/A",
        "city": "Melbourne",
        "state": "N/A",
        "country_region": "Australia",
        "lat": -37.8136,
        "lon": 144.9631,
        "pay": "40.5",
        "pay_type": "Salary"
    },
    {
        "original_title": "Field Engineer ",
        "formatted_title": "Field Engineer",
        "job_tier": "N/A",
        "city": "Virginia",
        "state": "N/A",
        "country_region": "Unknown",
        "lat": 37.4316,
        "lon": -78.6569,
        "pay": "70000",
        "pay_type": "Salary"
    },
    {
        "original_title": "End User Support Analyst I",
        "formatted_title": "End User Support Analyst 1",
        "job_tier": "1",
        "city": "Roanoke Rapids",
        "state": "North Carolina",
        "country_region": "United States",
        "lat": 36.4613,
        "lon": -77.6548,
        "pay": "18",
        "pay_type": "Hourly"
    },
    {
        "original_title": "Systems Engineer ",
        "formatted_title": "Systems Engineer",
        "job_tier": "N/A",
        "city": "Atlanta",
        "state": "N/A",
        "country_region": "Unknown",
        "lat": 33.749,
        "lon": -84.388,
        "pay": "70000",
        "pay_type": "Salary"
    },
    {
        "original_title": "GLOBAL TECHNOLOGY SERVICES technician",
        "formatted_title": "Global Technology Services Technician",
        "job_tier": "N/A",
        "city": "Springfield",
        "state": "Missouri",
        "country_region": "United States",
        "lat": 37.2086,
        "lon": -93.2923,
        "pay": "80000",
        "pay_type": "Salary"
    },
    {
        "original_title": "IT Support Technician III ",
        "formatted_title": "IT Support Technician 3",
        "job_tier": "3",
        "city": "Phoenix",
        "state": "Arizona",
        "country_region": "United States",
        "lat": 33.4484,
        "lon": -112.074,
        "pay": "39.75",
        "pay_type": "Hourly"
    },
    {
        "original_title": "Systems administrator ",
        "formatted_title": "Systems Administrator",
        "job_tier": "N/A",
        "city": "Oregon USA",
        "state": "N/A",
        "country_region": "Lebanon",
        "lat": 44.5369,
        "lon": -122.905,
        "pay": "74000",
        "pay_type": "Salary"
    },
    {
        "original_title": "Enterprise Support Technician. ",
        "formatted_title": "Enterprise Support Technician.",
        "job_tier": "N/A",
        "city": "Dublin",
        "state": "N/A",
        "country_region": "Ireland",
        "lat": 53.3498,
        "lon": -6.2603,
        "pay": "86500",
        "pay_type": "Salary"
    },
    {
        "original_title": "sole operator of a business",
        "formatted_title": "Sole Operator Of A Business",
        "job_tier": "N/A",
        "city": "Juarez",
        "state": "N/A",
        "country_region": "Mexico",
        "lat": 31.6904,
        "lon": -106.4245,
        "pay": "20",
        "pay_type": "Hourly"
    },
    {
        "original_title": "District Technology Director ",
        "formatted_title": "District Technology Director",
        "job_tier": "N/A",
        "city": "Burlington",
        "state": "Colorado",
        "country_region": "United States",
        "lat": 39.3125,
        "lon": -102.2707,
        "pay": "51000",
        "pay_type": "Salary"
    },
    {
        "original_title": "IT Manager",
        "formatted_title": "IT Manager",
        "job_tier": "N/A",
        "city": "Portsmouth",
        "state": "N/A",
        "country_region": "UK",
        "lat": 50.8167,
        "lon": -1.0833,
        "pay": "90000",
        "pay_type": "Salary"
    },
    {
        "original_title": "Software Engineer ",
        "formatted_title": "Software Engineer",
        "job_tier": "N/A",
        "city": "Minneapolis",
        "state": "Minnesota",
        "country_region": "United States",
        "lat": 44.9778,
        "lon": -93.265,
        "pay": "72000",
        "pay_type": "Salary"
    },
    {
        "original_title": "Senior technical support engioneer",
        "formatted_title": "Technical Support Engioneer 3",
        "job_tier": "3",
        "city": "Champaign",
        "state": "Illinois",
        "country_region": "United States",
        "lat": 40.1164,
        "lon": -88.2434,
        "pay": "118000",
        "pay_type": "Salary"
    },
    {
        "original_title": "Senior infrastructure engineer",
        "formatted_title": "Infrastructure Engineer 3",
        "job_tier": "3",
        "city": "Manhattan",
        "state": "New York",
        "country_region": "United States",
        "lat": 40.7831,
        "lon": -73.9712,
        "pay": "155000",
        "pay_type": "Salary"
    },
    {
        "original_title": "3rd Line IT Support Engineer ",
        "formatted_title": "IT Support Engineer 3",
        "job_tier": "3",
        "city": "Shrewsbury",
        "state": "N/A",
        "country_region": "Unknown",
        "lat": 52.706,
        "lon": -2.7416,
        "pay": "60000",
        "pay_type": "Salary"
    },
    {
        "original_title": "Systems Administrator",
        "formatted_title": "Systems Administrator",
        "job_tier": "N/A",
        "city": "Troy",
        "state": "Michigan",
        "country_region": "United States",
        "lat": 42.6064,
        "lon": -83.1498,
        "pay": "68.5",
        "pay_type": "Salary"
    },
    {
        "original_title": "Systems Administrator",
        "formatted_title": "Systems Administrator",
        "job_tier": "N/A",
        "city": "City",
        "state": "Oklahoma",
        "country_region": "United States",
        "lat": 35.4676,
        "lon": -97.5164,
        "pay": "47500",
        "pay_type": "Salary"
    },
    {
        "original_title": "IT Analyst",
        "formatted_title": "IT Analyst",
        "job_tier": "N/A",
        "city": "London",
        "state": "N/A",
        "country_region": "United Kingdom",
        "lat": 51.5074,
        "lon": -0.1278,
        "pay": "47000",
        "pay_type": "Salary"
    },
    {
        "original_title": "MSP technician",
        "formatted_title": "Msp Technician",
        "job_tier": "N/A",
        "city": "Huntsville",
        "state": "Alabama",
        "country_region": "United States",
        "lat": 34.7304,
        "lon": -86.5861,
        "pay": "17",
        "pay_type": "Hourly"
    },
    {
        "original_title": "DevOps Techinical Lead",
        "formatted_title": "Devops Techinical Lead",
        "job_tier": "N/A",
        "city": "Scotland",
        "state": "N/A",
        "country_region": "Unknown",
        "lat": 56.4907,
        "lon": -4.2026,
        "pay": "84500",
        "pay_type": "Salary"
    },
    {
        "original_title": "vCIO",
        "formatted_title": "Vcio",
        "job_tier": "N/A",
        "city": "Montgomery",
        "state": "Alabama",
        "country_region": "United States",
        "lat": 32.3668,
        "lon": -86.2999,
        "pay": "80000",
        "pay_type": "Salary"
    },
    {
        "original_title": "IT Project Manager ",
        "formatted_title": "IT Project Manager",
        "job_tier": "N/A",
        "city": "Dublin",
        "state": "N/A",
        "country_region": "Ireland",
        "lat": 53.3498,
        "lon": -6.2603,
        "pay": "44306",
        "pay_type": "Salary"
    },
    {
        "original_title": "System Admin ",
        "formatted_title": "System Admin",
        "job_tier": "N/A",
        "city": "Athens",
        "state": "N/A",
        "country_region": "Greece",
        "lat": 37.9838,
        "lon": 23.7275,
        "pay": "15177",
        "pay_type": "Salary"
    },
    {
        "original_title": "Owner",
        "formatted_title": "Owner",
        "job_tier": "N/A",
        "city": "Forster NSW",
        "state": "N/A",
        "country_region": "Australia",
        "lat": -32.1788,
        "lon": 152.5116,
        "pay": "75",
        "pay_type": "Hourly"
    },
    {
        "original_title": "Systems Administrator",
        "formatted_title": "Systems Administrator",
        "job_tier": "N/A",
        "city": "Westerville",
        "state": "Ohio",
        "country_region": "United States",
        "lat": 40.1262,
        "lon": -82.9291,
        "pay": "60000",
        "pay_type": "Salary"
    },
    {
        "original_title": "Senior System Analyst",
        "formatted_title": "System Analyst 3",
        "job_tier": "3",
        "city": "Blue Springs",
        "state": "Missouri",
        "country_region": "United States",
        "lat": 39.015,
        "lon": -94.2722,
        "pay": "68000",
        "pay_type": "Salary"
    },
    {
        "original_title": "Systems Support Technician",
        "formatted_title": "Systems Support Technician",
        "job_tier": "N/A",
        "city": "St. Augustine",
        "state": "Florida",
        "country_region": "United States",
        "lat": 29.9012,
        "lon": -81.3124,
        "pay": "27.92",
        "pay_type": "Hourly"
    },
    {
        "original_title": "Senior Support Technician",
        "formatted_title": "Support Technician 3",
        "job_tier": "3",
        "city": "Boston",
        "state": "Massachusetts",
        "country_region": "United States",
        "lat": 42.3601,
        "lon": -71.0589,
        "pay": "80000",
        "pay_type": "Salary"
    },
    {
        "original_title": "Mac Engineering Team Lead/Project Manager",
        "formatted_title": "Mac Engineering Team Lead/Project Manager",
        "job_tier": "N/A",
        "city": "Rockville",
        "state": "Maryland",
        "country_region": "United States",
        "lat": 39.0834,
        "lon": -77.1553,
        "pay": "133000",
        "pay_type": "Salary"
    },
    {
        "original_title": "IT Administrator ",
        "formatted_title": "IT Administrator",
        "job_tier": "N/A",
        "city": "Sioux Falls",
        "state": "South Dakota",
        "country_region": "United States",
        "lat": 43.5446,
        "lon": -96.7311,
        "pay": "105000",
        "pay_type": "Salary"
    },
    {
        "original_title": "System architect",
        "formatted_title": "System Architect",
        "job_tier": "N/A",
        "city": "Cleveland",
        "state": "Ohio",
        "country_region": "United States",
        "lat": 41.4993,
        "lon": -81.6944,
        "pay": "112000",
        "pay_type": "Salary"
    },
    {
        "original_title": "Level III Technician ",
        "formatted_title": "LevelTechnician 3",
        "job_tier": "3",
        "city": "Pittsburgh",
        "state": "Pennsylvania",
        "country_region": "United States",
        "lat": 40.4406,
        "lon": -79.9959,
        "pay": "34.25",
        "pay_type": "Hourly"
    },
    {
        "original_title": "Network Engineer",
        "formatted_title": "Network Engineer",
        "job_tier": "N/A",
        "city": "Denver",
        "state": "Colorado",
        "country_region": "United States",
        "lat": 39.7392,
        "lon": -104.9903,
        "pay": "81000",
        "pay_type": "Salary"
    },
    {
        "original_title": "Senior Security Analyst",
        "formatted_title": "Security Analyst 3",
        "job_tier": "3",
        "city": "Austin",
        "state": "Texas",
        "country_region": "United States",
        "lat": 30.2672,
        "lon": -97.7431,
        "pay": "100000",
        "pay_type": "Salary"
    },