[
    {
        "title": "Associate Director of IT",
        "location": "Austin US",
        "lat": 30.2672,
        "lon": -97.7431,
        "pay": "147,000.00 Annually"
    },
    {
        "title": "Infrastructure Engineer",
        "location": "Troy MI USA",
        "lat": 42.5834,
        "lon": -83.1446,
        "pay": "65563 Annually"
    },
    {
        "title": "Systems admin",
        "location": "Beaumont TX",
        "lat": 30.0802,
        "lon": -94.1266,
        "pay": "100000 Annually"
    },
    {
        "title": "Systems Administrator",
        "location": "Muskogee USA",
        "lat": 35.7479,
        "lon": -95.3697,
        "pay": "28.9 Hourly"
    },
    {
        "title": "Senior System Admin",
        "location": "Minnesota USA",
        "lat": 46.7296,
        "lon": -94.6859,
        "pay": "98,000 Hourly"
    },
    {
        "title": "IT Senior Analyst",
        "location": "Arizona USA",
        "lat": 34.0489,
        "lon": -111.0937,
        "pay": "$73,000 Annually"
    },
    {
        "title": "Information Security Analyst",
        "location": "Baton RougeLA USA",
        "lat": 30.4507,
        "lon": -91.1546,
        "pay": "58,000 Annually"
    },
    {
        "title": "Sales Engineer",
        "location": "OKC USA",
        "lat": 35.4676,
        "lon": -97.5164,
        "pay": "300000 Annually"
    },
    {
        "title": "Information Systems Representative",
        "location": "Memphis TN",
        "lat": 35.1495,
        "lon": -90.049,
        "pay": "71,000 Annually"
    },
    {
        "title": "Linux System Administrator",
        "location": "Patuxent River USA",
        "lat": 38.2842,
        "lon": -76.4448,
        "pay": "142,600 Annually"
    },
    {
        "title": "IT SysAdmin (1 of 1)",
        "location": "Florida USA",
        "lat": 27.7663,
        "lon": -81.6868,
        "pay": "59000 Annually"
    },
    {
        "title": "RHEL Systems Engineer",
        "location": "Colorado Springs USA",
        "lat": 38.8339,
        "lon": -104.8214,
        "pay": "146,000 Annually"
    },
    {
        "title": "IT Support Specialist",
        "location": "Frederick US",
        "lat": 39.4142,
        "lon": -77.4105,
        "pay": "20 Hourly"
    },
    {
        "title": "IT Technician ",
        "location": "Oklahoma City United States",
        "lat": 35.4676,
        "lon": -97.5164,
        "pay": "$27 Hourly"
    },
    {
        "title": "Technical Consultant",
        "location": "Hertfordshire",
        "lat": 51.8098,
        "lon": -0.2375,
        "pay": "30302.64 Annually"
    },
    {
        "title": "System admin",
        "location": "St. John\u2019s Canada",
        "lat": 47.5588,
        "lon": -52.7011,
        "pay": "20.43 Hourly"
    },
    {
        "title": "IT Manager",
        "location": "Omaha USA",
        "lat": 41.2565,
        "lon": -95.9345,
        "pay": "82,000 Annually"
    },
    {
        "title": "System Administrator",
        "location": "Orange TX USA",
        "lat": 30.163,
        "lon": -93.7637,
        "pay": "22.97 Hourly"
    },
    {
        "title": "Electrical Engineer ",
        "location": "Alexandria Egypt",
        "lat": 31.2156,
        "lon": 29.9553,
        "pay": "10 Hourly"
    },
    {
        "title": "Junior IT technition",
        "location": "Glasgow  Scotland",
        "lat": 55.8642,
        "lon": -4.2518,
        "pay": "23421 Annually"
    },
    {
        "title": "IT Manager",
        "location": "Trenton United States",
        "lat": 40.2171,
        "lon": -74.7429,
        "pay": "100000 Annually"
    },
    {
        "title": "Support ",
        "location": "Shivasatakshi Nepal",
        "lat": 25.5861,
        "lon": 88.5072,
        "pay": "20 Hourly"
    },
    {
        "title": "Software Deployment Engineer",
        "location": "Ennis USA",
        "lat": 32.3295,
        "lon": -96.6179,
        "pay": "65000 Annually"
    },
    {
        "title": "Tier 2 Desktop Support Technician",
        "location": "Greensburg USA",
        "lat": 40.3015,
        "lon": -79.5389,
        "pay": "24.04 Hourly"
    },
    {
        "title": "Data and Systems Manager",
        "location": "Little Rock USA",
        "lat": 34.7465,
        "lon": -92.2896,
        "pay": "55,000 Annually"
    },
    {
        "title": "IT Professional 2",
        "location": "Ely NV",
        "lat": 39.2479,
        "lon": -114.8876,
        "pay": "49.82 Hourly"
    },
    {
        "title": "IT Network Engineer",
        "location": "Herndon USA",
        "lat": 38.9696,
        "lon": -77.3861,
        "pay": "123000 Annually"
    },
    {
        "title": "Systems Engineer",
        "location": "Wausau Wisconsin",
        "lat": 44.9591,
        "lon": -89.6301,
        "pay": "81250 Annually"
    },
    {
        "title": "It specialist",
        "location": "Saint Louis MO",
        "lat": 38.627,
        "lon": -90.1994,
        "pay": "76000 Annually"
    },
    {
        "title": "Technical Support Engineer II",
        "location": "Kansas City USA",
        "lat": 39.0997,
        "lon": -94.5786,
        "pay": "$71,800 Annually"
    },
    {
        "title": "IT Engineer",
        "location": "Madison Wisconsin",
        "lat": 43.0747,
        "lon": -89.3842,
        "pay": "65000 Annually"
    },
    {
        "title": "IT Director",
        "location": "Green Bay WI USA",
        "lat": 44.5133,
        "lon": -88.0133,
        "pay": "90,000 Annually"
    },
    {
        "title": "System Engineer",
        "location": "Lees Summit US",
        "lat": 38.9108,
        "lon": -94.3822,
        "pay": "104,000 Annually"
    },
    {
        "title": "Data Manager",
        "location": "London UK",
        "lat": 51.5074,
        "lon": -0.1278,
        "pay": "65000 Annually"
    },
    {
        "title": "Senior Incident Response Systems Engineer",
        "location": "Cleveland OH USA",
        "lat": 41.4993,
        "lon": -81.6944,
        "pay": "125,000 Annually"
    },
    {
        "title": "IT Support Specialist",
        "location": "Charleston WV",
        "lat": 38.3498,
        "lon": -81.6326,
        "pay": "45,000 Annually"
    },
    {
        "title": "IT / Purchasing / Infrastructure Coordinator",
        "location": "Clinton Twp USA",
        "lat": 42.6149,
        "lon": -82.9559,
        "pay": "55.61 Hourly"
    },
    {
        "title": "Cloud Serive Technician",
        "location": "GalwayiRELAND",
        "lat": 53.2707,
        "lon": -9.0568,
        "pay": "560000 Annually"
    },
    {
        "title": "It radiology application analyst/pacs admin",
        "location": "Teaneck USA",
        "lat": 40.8948,
        "lon": -74.0107,
        "pay": "90,000 Annually"
    },
    {
        "title": "Consultant ",
        "location": "Boston USA",
        "lat": 42.3601,
        "lon": -71.0589,
        "pay": "94000 Annually"
    },
    {
        "title": "FRCS RMF SME",
        "location": "Chesapeake USA",
        "lat": 36.7682,
        "lon": -76.2875,
        "pay": "132,190 Annually"
    },
    {
        "title": "Senior Associate End User Technology Engineer",
        "location": "London UK",
        "lat": 51.5074,
        "lon": -0.1278,
        "pay": "55000 Annually"
    },
    {
        "title": "System Administrator ",
        "location": "Wilmington NC",
        "lat": 34.2257,
        "lon": -77.9447,
        "pay": "37 Hourly"
    },
    {
        "title": "Cyber Security Engineer",
        "location": "Washington State USA",
        "lat": 47.7511,
        "lon": -120.7401,
        "pay": "136000 Annually"
    },
    {
        "title": "Network Manager",
        "location": "London",
        "lat": 51.5074,
        "lon": -0.1278,
        "pay": "94000 Annually"
    },
    {
        "title": "System-/Network Egineer",
        "location": "Hengevelde Netherlands",
        "lat": 52.2076,
        "lon": 6.5594,
        "pay": "1431 Hourly"
    },
    {
        "title": "Development Support Engineer",
        "location": "Atlanta",
        "lat": 33.749,
        "lon": -84.388,
        "pay": "69000 Annually"
    },
    {
        "title": "System Administrator/IT Dept Supervisor",
        "location": "New Albany USA",
        "lat": 40.0913,
        "lon": -82.9977,
        "pay": "70,000 Annually"
    },
    {
        "title": "Web Developer ",
        "location": "Fort Wayne USA",
        "lat": 41.0793,
        "lon": -85.1394,
        "pay": "68,000 Annually"
    },
    {
        "title": "It Tier 3 technician ",
        "location": "Cambridge US",
        "lat": 42.3736,
        "lon": -71.1097,
        "pay": "56,000 Annually"
    },
    {
        "title": "Client Analyst III",
        "location": "Greenwood SC USA",
        "lat": 34.1954,
        "lon": -82.1618,
        "pay": "33.31 Hourly"
    },
    {
        "title": "Senior Associate",
        "location": "New york",
        "lat": 40.7128,
        "lon": -74.006,
        "pay": "73,000 Annually"
    },
    {
        "title": "IT Coordinator / T1-T2 helpdesk",
        "location": "Omaha USA",
        "lat": 41.2565,
        "lon": -95.9345,
        "pay": "55000 Annually"
    },
    {
        "title": "Director IT",
        "location": "Schaumburg IL USA",
        "lat": 42.0334,
        "lon": -88.0834,
        "pay": "173,400 Annually"
    },
    {
        "title": "Senior IT Support Engineer ",
        "location": "MANCHESTER UK",
        "lat": 53.4831,
        "lon": -2.2397,
        "pay": "36600 Annually"
    },
    {
        "title": "Tech support analyst i",
        "location": "Spokane usa",
        "lat": 47.6588,
        "lon": -117.426,
        "pay": "24.1 Hourly"
    },
    {
        "title": "Senior IT Associate",
        "location": "New York City",
        "lat": 40.7128,
        "lon": -74.006,
        "pay": "45.22 Annually"
    },
    {
        "title": "Information Systems Supervisor ",
        "location": "Eureka USA",
        "lat": 40.8017,
        "lon": -124.1637,
        "pay": "40.07 Hourly"
    },
    {
        "title": "IT analyst ",
        "location": "Waterloo Canada",
        "lat": 43.4643,
        "lon": -80.5204,
        "pay": "48,000 Annually"
    },
    {
        "title": "Jr. Cloud Administrator ",
        "location": "Ottawa Canada",
        "lat": 45.4215,
        "lon": -75.6906,
        "pay": "15.6 Hourly"
    },
    {
        "title": "Systems Engineer ",
        "location": "St. Louis US",
        "lat": 38.627,
        "lon": -90.1994,
        "pay": "95,000 Annually"
    },
    {
        "title": "Systems Admin",
        "location": "Annapolis Junction USA",
        "lat": 39.1096,
        "lon": -76.7769,
        "pay": "69.7 Hourly"
    },
    {
        "title": "Systems Administrator",
        "location": "Geneva NY USA",
        "lat": 38.2919,
        "lon": -77.37,
        "pay": "$98,500 Annually"
    },
    {
        "title": "Structured Cabling Soecialist",
        "location": "Cleveland Ohio",
        "lat": 41.4993,
        "lon": -81.6944,
        "pay": "58500 Annually"
    },
    {
        "title": "Information Technology Manager",
        "location": "Concord US",
        "lat": 37.9772,
        "lon": -122.0311,
        "pay": "$62,500 Annually"
    },
    {
        "title": "IT Manager SaaS",
        "location": "Atlanta Georgia",
        "lat": 33.749,
        "lon": -84.388,
        "pay": "115000 Annually"
    },
    {
        "title": "Web Developer",
        "location": "Leeds UK",
        "lat": 53.8008,
        "lon": -1.5491,
        "pay": "41000 Annually"
    },
    {
        "title": "Network Systems Engineer",
        "location": "Monterey USA",
        "lat": 36.6002,
        "lon": -121.8947,
        "pay": "90,000 Annually"
    },
    {
        "title": "Field supervisor",
        "location": "portsmouth",
        "lat": 50.8192,
        "lon": -1.0873,
        "pay": "19 Hourly"
    },
    {
        "title": "IT Customer Support Journey",
        "location": "Union Gap USA",
        "lat": 46.5645,
        "lon": -120.4807,
        "pay": "90084 Annually"
    },
    {
        "title": "System Administrator II",
        "location": "Greensboro NC",
        "lat": 36.0726,
        "lon": -79.792,
        "pay": "72,149 Annually"
    },
    {
        "title": "ICT Solutions Architecht",
        "location": "Winnipeg Canada",
        "lat": 49.8951,
        "lon": -97.1384,
        "pay": "50,000 Annually"
    },
    {
        "title": "IT Director",
        "location": "Indiana USA",
        "lat": 40.2672,
        "lon": -86.1349,
        "pay": "119,500 Annually"
    },
    {
        "title": "Senior Advisor / Advisor II",
        "location": "Utah USA",
        "lat": 39.32,
        "lon": -111.0937,
        "pay": "128000 Annually"
    },
    {
        "title": "Helpdesk lvl 1.5",
        "location": "Kenosha WI",
        "lat": 42.5847,
        "lon": -87.8212,
        "pay": "24 Hourly"
    },
    {
        "title": "Infrastructure Systems Engineer ",
        "location": "Tampa",
        "lat": 27.9506,
        "lon": -82.4572,
        "pay": "83000 Annually"
    },
    {
        "title": "Senior Support Engineer",
        "location": "Edmonton Canada",
        "lat": 53.5461,
        "lon": -113.4938,
        "pay": "34.05 Annually"
    },
    {
        "title": "Tier 2 Technician",
        "location": "Dallas TX",
        "lat": 32.7767,
        "lon": -96.797,
        "pay": "55,000 Annually"
    },
    {
        "title": "IT Specialist",
        "location": "Michigan",
        "lat": 44.3148,
        "lon": -85.6024,
        "pay": "$25.60 Hourly"
    },
    {
        "title": "Technical Support Analyst",
        "location": "Flint USA",
        "lat": 43.0125,
        "lon": -83.6875,
        "pay": "68000 Annually"
    },
    {
        "title": "Systems Support Specialist ",
        "location": "Kennebunk USA",
        "lat": 43.3813,
        "lon": -70.5444,
        "pay": "27.75 Hourly"
    },
    {
        "title": "Sr. Security Administrator",
        "location": "Oklahoma City United States",
        "lat": 35.4676,
        "lon": -97.5164,
        "pay": "95,000.00 Annually"
    },
    {
        "title": "IT Senior Professional",
        "location": "Slovakia",
        "lat": 48.669,
        "lon": 19.699,
        "pay": "3300 Annually"
    },
    {
        "title": "Security Engineer",
        "location": "Oklahoma City United States",
        "lat": 35.4676,
        "lon": -97.5164,
        "pay": "76,000 Annually"
    },
    {
        "title": "INFORMATION SECURITY ENGINEER",
        "location": "New York USA",
        "lat": 40.7128,
        "lon": -74.006,
        "pay": "78000 Annually"
    },
    {
        "title": "Senior system administrator",
        "location": "Arlington VA",
        "lat": 38.8799,
        "lon": -77.1068,
        "pay": "148000 Annually"
    },
    {
        "title": "IT Cybersecurity Specialist",
        "location": "Detroit MI",
        "lat": 42.3314,
        "lon": -83.0458,
        "pay": "114000 Annually"
    },
    {
        "title": "IT Specialist",
        "location": "Irvine CA",
        "lat": 33.6846,
        "lon": -117.8265,
        "pay": "125000 Annually"
    },
    {
        "title": "Principal Network Specialist - Presales",
        "location": "Denver USA",
        "lat": 39.7392,
        "lon": -104.9903,
        "pay": "298,000 Annually"
    },
    {
        "title": "Network Adminstrator",
        "location": "Hartland MI USA",
        "lat": 42.6426,
        "lon": -83.6639,
        "pay": "$48,000 Annually"
    },
    {
        "title": "Network Engineer ",
        "location": "Fort Wayne Indiana USA",
        "lat": 41.0793,
        "lon": -85.1394,
        "pay": "88,000 Annually"
    },
    {
        "title": "Tier 1 Support Technician",
        "location": "US Cleveland",
        "lat": 41.4993,
        "lon": -81.6944,
        "pay": "20 Hourly"
    },
    {
        "title": "Information system specialist ",
        "location": "Scranton United States",
        "lat": 41.408,
        "lon": -75.6624,
        "pay": "55,000 Annually"
    },
    {
        "title": "IT director",
        "location": "Salisbury MD USA",
        "lat": 38.3658,
        "lon": -75.599,
        "pay": "40 Hourly"
    },
    {
        "title": "District Technology Technician II",
        "location": "Knoxville",
        "lat": 35.9606,
        "lon": -83.9207,
        "pay": "48,000 Annually"
    },
    {
        "title": "Identity Engineer",
        "location": "Idaho Falls US",
        "lat": 43.4917,
        "lon": -112.0337,
        "pay": "108000 Annually"
    },
    {
        "title": "Senior System Administrator",
        "location": "New Orleans USA",
        "lat": 29.9511,
        "lon": -90.0715,
        "pay": "100,000 Annually"
    },
    {
        "title": "Network Technician",
        "location": "Raleigh United States",
        "lat": 35.7796,
        "lon": -78.6382,
        "pay": "$27 Hourly"
    },
    {
        "title": "IT Support Specialist ",
        "location": "Illinois USA",
        "lat": 40.6331,
        "lon": -89.3985,
        "pay": "$53,000 Annually"
    },
    {
        "title": "Communications Network Engineer",
        "location": "Millington TN",
        "lat": 35.3395,
        "lon": -89.897,
        "pay": "$30 Hourly"
    },
    {
        "title": "Priviledge access management Analyst",
        "location": "Warwick UK",
        "lat": 52.2869,
        "lon": -1.5924,
        "pay": "49800 Annually"
    },
    {
        "title": "IT support",
        "location": "biloxi united states",
        "lat": 30.396,
        "lon": -88.8854,
        "pay": "50000 Annually"
    },
    {
        "title": "Data Center Engineer II",
        "location": "Las Vegas",
        "lat": 36.1699,
        "lon": -115.1398,
        "pay": "32.69 Hourly"
    },
    {
        "title": "It support desk tech tier 1",
        "location": "Grand Rapids usa",
        "lat": 42.9634,
        "lon": -85.6681,
        "pay": "21.50$ Hourly"
    },
    {
        "title": "IT Technician/Help Desk",
        "location": "Harrisonburg United States",
        "lat": 38.4496,
        "lon": -78.8689,
        "pay": "20 Hourly"
    },
    {
        "title": "Director of Operations",
        "location": "Evansville",
        "lat": 37.9716,
        "lon": -87.5711,
        "pay": "90000 Annually"
    },
    {
        "title": "IT Support Specialist - Security",
        "location": "Orlando USA",
        "lat": 28.5383,
        "lon": -81.3792,
        "pay": "22.86 Hourly"
    },
    {
        "title": "Director of Technology",
        "location": "York PA USA",
        "lat": 39.9626,
        "lon": -76.7277,
        "pay": "86,000 Annually"
    },
    {
        "title": "IT Network Specialist",
        "location": "Easton MD USA",
        "lat": 38.7748,
        "lon": -76.0767,
        "pay": "75,000 Annually"
    },
    {
        "title": "Jr System Administrator",
        "location": "Albuquerque NM USA",
        "lat": 35.0844,
        "lon": -106.6504,
        "pay": "27 Hourly"
    },
    {
        "title": "IT Administrator",
        "location": "Dubai",
        "lat": 25.2048,
        "lon": 55.2708,
        "pay": "60000 Annually"
    },
    {
        "title": "Technician System Specialist",
        "location": "Clarksburg WV USA",
        "lat": 39.2806,
        "lon": -80.3445,
        "pay": "$58,021 Annually"
    },
    {
        "title": "IS Support Specialist ",
        "location": "Livonia MI",
        "lat": 42.3684,
        "lon": -83.3527,
        "pay": "60,000 Annually"
    },
    {
        "title": "IT Manager",
        "location": "Vancouver Canada",
        "lat": 49.2827,
        "lon": -123.1207,
        "pay": "76,500 Annually"
    },
    {
        "title": "Team Leader",
        "location": "Athens Greece",
        "lat": 37.9838,
        "lon": 23.7275,
        "pay": "1600 Annually"
    },
    {
        "title": "Network Administrator",
        "location": "Charleston SC USA",
        "lat": 32.7765,
        "lon": -79.9311,
        "pay": "$80,000 Annually"
    },
    {
        "title": "ITSM Consultant",
        "location": "Louisville KY USA",
        "lat": 38.2527,
        "lon": -85.7585,
        "pay": "$113,300 Annually"
    },
    {
        "title": "Senior Software Engineer II",
        "location": "Cleveland Ohio USA",
        "lat": 41.4993,
        "lon": -81.6944,
        "pay": "165000 Annually"
    },
    {
        "title": "Head of IT",
        "location": "LondonUK",
        "lat": 51.5074,
        "lon": -0.1278,
        "pay": "86,400 Annually"
    },
    {
        "title": "Chief Information Officer & SVP Technology and Infrastructure Operations",
        "location": "Los Angeles California USA",
        "lat": 34.0522,
        "lon": -118.2437,
        "pay": "$285,000 Annually"
    },
    {
        "title": "ITSM Administration ",
        "location": "Charleston USA",
        "lat": 32.7765,
        "lon": -79.9311,
        "pay": "95,000 Annually"
    },
    {
        "title": "Systems Administrator",
        "location": "Jarrell TX",
        "lat": 30.8134,
        "lon": -97.598,
        "pay": "87,550 Annually"
    },
    {
        "title": "Systems engineer network operation center",
        "location": "Aiken united states",
        "lat": 33.5604,
        "lon": -81.7196,
        "pay": "84715 Annually"
    },
    {
        "title": "Helpdesk Tier 1",
        "location": "Lexington KY USA",
        "lat": 38.0406,
        "lon": -84.5037,
        "pay": "20.9 Hourly"
    },
    {
        "title": "Systems engineer ",
        "location": "Portland oregon",
        "lat": 45.5155,
        "lon": -122.6793,
        "pay": "160000 Annually"
    },
    {
        "title": "Technical Support Analyst III",
        "location": "Red Deer Canada",
        "lat": 52.2681,
        "lon": -113.8112,
        "pay": "53000 Annually"
    },
    {
        "title": "System Support Specialist ",
        "location": "San Antonio United States",
        "lat": 29.4241,
        "lon": -98.4936,
        "pay": "20.56 Hourly"
    },
    {
        "title": "Manager",
        "location": "Cork Ireland",
        "lat": 51.8985,
        "lon": -8.4756,
        "pay": "86000 Annually"
    },
    {
        "title": "Senior IT Operations Engineer ",
        "location": "Dundee Scotland",
        "lat": 56.462,
        "lon": -2.9707,
        "pay": "56500 Annually"
    },
    {
        "title": "Network Technician",
        "location": "Milford United States",
        "lat": 41.2307,
        "lon": -73.0645,
        "pay": "33 Annually"
    },
    {
        "title": "Technical support specialist ",
        "location": "Eaton United states",
        "lat": 47.299,
        "lon": -122.3042,
        "pay": "$41,000 Annually"
    },
    {
        "title": "Systems engineer ",
        "location": "Remote KY",
        "lat": 37.0221,
        "lon": -84.4529,
        "pay": "87,000 Annually"
    },
    {
        "title": "Team Lead - Printer and VTC Remotes",
        "location": "Jacksonville US",
        "lat": 30.3322,
        "lon": -81.6557,
        "pay": "40$ Hourly"
    },
    {
        "title": "Sys Admin",
        "location": "Mishawaka US",
        "lat": 41.6611,
        "lon": -86.1587,
        "pay": "38.25 Hourly"
    },
    {
        "title": "Mid backend developer",
        "location": "Kaunas Lithuania",
        "lat": 54.8985,
        "lon": 23.9036,
        "pay": "45500 Annually"
    },
    {
        "title": "Technology Director",
        "location": "Dillingham AK USA",
        "lat": 59.0397,
        "lon": -158.505,
        "pay": "114,000 Annually"
    },
    {
        "title": "IT Director",
        "location": "Indianapolis IN",
        "lat": 39.7684,
        "lon": -86.1581,
        "pay": "75,000 Annually"
    },
    {
        "title": "IT Operations ",
        "location": "Houston USA",
        "lat": 29.7604,
        "lon": -95.3698,
        "pay": "$60,000 Annually"
    },
    {
        "title": "Deputy Manager - SAP Basis",
        "location": "Karachi Pakistan",
        "lat": 24.8607,
        "lon": 67.0011,
        "pay": "7440 Annually"
    },
    {
        "title": "Technology Alignment Manager",
        "location": "Roswell GA USA",
        "lat": 34.0232,
        "lon": -84.3603,
        "pay": "104,000 Annually"
    },
    {
        "title": "Senior Systems Engineer ",
        "location": "Saint Paul USA",
        "lat": 44.9537,
        "lon": -93.09,
        "pay": "84000 Annually"
    },
    {
        "title": "IT support technician",
        "location": "UK",
        "lat": 53.4831,
        "lon": -2.2397,
        "pay": "40000 Annually"
    },
    {
        "title": "Cyber Security Supervisor",
        "location": "Irvine CA USA",
        "lat": 33.6846,
        "lon": -117.8265,
        "pay": "165,000 Annually"
    },
    {
        "title": "IT Security Manager",
        "location": "Nashville TN USA",
        "lat": 36.1627,
        "lon": -86.7816,
        "pay": "$108,900 Annually"
    },
    {
        "title": "Software system engineer ",
        "location": "Huntsville AL",
        "lat": 34.7304,
        "lon": -86.5861,
        "pay": "73,000 Annually"
    },
    {
        "title": "IT Support Manager ",
        "location": "London United Kingdom",
        "lat": 51.5074,
        "lon": -0.1278,
        "pay": "76000 Annually"
    },
    {
        "title": "IT Support Specialist ",
        "location": "Reno Nevada USA",
        "lat": 39.5296,
        "lon": -119.8138,
        "pay": "28.08 Hourly"
    },
    {
        "title": "Azure Administrator",
        "location": "Valdosta GA",
        "lat": 30.8327,
        "lon": -83.2785,
        "pay": "118,000 Annually"
    },
    {
        "title": "Senior Salesforce Administrator",
        "location": "New York City United States of America",
        "lat": 40.7128,
        "lon": -74.006,
        "pay": "173,000 Annually"
    },
    {
        "title": "Technical Consultant (Tier 2) support",
        "location": "Dallas Tx",
        "lat": 32.7767,
        "lon": -96.797,
        "pay": "65,000 Annually"
    },
    {
        "title": "Technical expert",
        "location": "Newcastle Australia",
        "lat": -32.9267,
        "lon": 151.7789,
        "pay": "65k per year (100k AUD) Annually"
    },
    {
        "title": "Field Services Tech",
        "location": "Manhattan KS",
        "lat": 39.1836,
        "lon": -96.5717,
        "pay": "55,000 Annually"
    },
    {
        "title": "network administrator",
        "location": "kennewick usa",
        "lat": 46.2112,
        "lon": -119.1372,
        "pay": "75000 Annually"
    },
    {
        "title": "Network Security Engineer ",
        "location": "Pittsburgh PA Area. USA",
        "lat": 40.4406,
        "lon": -79.9959,
        "pay": "115k/yr Annually"
    },
    {
        "title": "IT/OT Tech",
        "location": "Canada",
        "lat": 56.1304,
        "lon": -106.3468,
        "pay": "75000 Annually"
    },
    {
        "title": "IT Support Engineer",
        "location": "Copenhagen Denmark",
        "lat": 55.6761,
        "lon": 12.5683,
        "pay": "3609/hour Hourly"
    },
    {
        "title": "Information Technology ",
        "location": "Elkin Nac",
        "lat": 31.2262,
        "lon": -94.9368,
        "pay": "$20 Hourly"
    },
    {
        "title": "Technical Specialist 2",
        "location": "USA",
        "lat": 37.0902,
        "lon": -95.7129,
        "pay": "$168,000 Annually"
    },
    {
        "title": "Telecommunications Analyst Tier II.",
        "location": "Baltimore Maryland",
        "lat": 39.2904,
        "lon": -76.6122,
        "pay": "20 Hourly"
    },
    {
        "title": "IT Manager",
        "location": "Milwaukee USA",
        "lat": 43.0389,
        "lon": -87.9065,
        "pay": "$101,000 Annually"
    },
    {
        "title": "Senior Security Engineer",
        "location": "Milwaukee WI USA",
        "lat": 43.0389,
        "lon": -87.9065,
        "pay": "127,500 Annually"
    },
    {
        "title": "DBA",
        "location": "Omaha",
        "lat": 41.2524,
        "lon": -95.998,
        "pay": "85000 Annually"
    },
    {
        "title": "Security Consultant",
        "location": "Fort Worth Texas",
        "lat": 32.7555,
        "lon": -97.3308,
        "pay": "117000 Annually"
    },
    {
        "title": "Help Desk Tier 2",
        "location": "Los Angeles",
        "lat": 34.0522,
        "lon": -118.2437,
        "pay": "39 Hourly"
    },
    {
        "title": "MIcrocomputer Desktop Support",
        "location": "San Diego CA",
        "lat": 32.7157,
        "lon": -117.1611,
        "pay": "109408.41 Annually"
    },
    {
        "title": "CTO",
        "location": "Nashville TN",
        "lat": 36.1627,
        "lon": -86.7816,
        "pay": "31.61 Hourly"
    },
    {
        "title": "Senior Application Support Analyst",
        "location": "Mexico",
        "lat": 23.6345,
        "lon": -102.5528,
        "pay": "31,450.00 Annually"
    },
    {
        "title": "IT Administrator",
        "location": "Edmonton Canada",
        "lat": 53.5461,
        "lon": -113.4938,
        "pay": "47,678 Annually"
    },
    {
        "title": "On-site tech level 1",
        "location": "Peoria Maricopa",
        "lat": 33.5806,
        "lon": -112.2373,
        "pay": "25.55 Hourly"
    },
    {
        "title": "Systems Administrator ",
        "location": "New Orleans United States",
        "lat": 29.9511,
        "lon": -90.0715,
        "pay": "70,000 Annually"
    },
    {
        "title": "Senior Infrastructure Engineer",
        "location": "Columbus OH USA",
        "lat": 39.9612,
        "lon": -82.9988,
        "pay": "$110,000 Annually"
    },
    {
        "title": "Cloud Infrastructure Engineer ",
        "location": "Gauteng South Africa",
        "lat": -26.2708,
        "lon": 28.1123,
        "pay": "$18,947 Annually"
    },
    {
        "title": "It Support Specialist",
        "location": "Fort Worth USA",
        "lat": 32.7555,
        "lon": -97.3308,
        "pay": "70,500 Annually"
    },
    {
        "title": "Technical Support Specialist III",
        "location": "Sedalia MO USA",
        "lat": 38.7045,
        "lon": -93.2283,
        "pay": "20.49 Hourly"
    },
    {
        "title": "Helpdesk analyst",
        "location": "Pittsburgh PA USA",
        "lat": 40.4406,
        "lon": -79.9959,
        "pay": "$33 Hourly"
    },
    {
        "title": "Systems Operator ",
        "location": "Clarksville US",
        "lat": 36.5298,
        "lon": -87.3595,
        "pay": "22.93 Hourly"
    },
    {
        "title": "Lead Field Tech",
        "location": "Nyc",
        "lat": 40.7128,
        "lon": -74.006,
        "pay": "$100,000 Annually"
    },
    {
        "title": "IT Team Leader",
        "location": "Cape Town South Africa",
        "lat": -33.9249,
        "lon": 18.4241,
        "pay": "15 867 Annually"
    },
    {
        "title": "Information Support Specialist",
        "location": "Dallas texas",
        "lat": 32.7767,
        "lon": -96.797,
        "pay": "31.71 Hourly"
    },
    {
        "title": "Project Manager",
        "location": "Layton UT",
        "lat": 41.0602,
        "lon": -111.971,
        "pay": "95000 Annually"
    },
    {
        "title": "IT Support Specialist",
        "location": "Tulsa Oklahoma",
        "lat": 36.154,
        "lon": -95.9928,
        "pay": "$21.63 Hourly"
    },
    {
        "title": "Technology Specialist ",
        "location": "Marshall MI USA",
        "lat": 42.2711,
        "lon": -84.9594,
        "pay": "18 Hourly"
    },
    {
        "title": "It Support Desk Team Leader ",
        "location": "Bristol UK",
        "lat": 51.4545,
        "lon": -2.5879,
        "pay": "56000 Annually"
    },
    {
        "title": "IT Branch Technician",
        "location": "Wilmington NC",
        "lat": 34.2104,
        "lon": -77.8868,
        "pay": "72500 Annually"
    },
    {
        "title": "Network Administrator",
        "location": "Walnut Creek CA USA",
        "lat": 37.9101,
        "lon": -122.0652,
        "pay": "93k/year Hourly"
    },
    {
        "title": "Support Center Analyst",
        "location": "Grand Rapids MI US",
        "lat": 42.9634,
        "lon": -85.6681,
        "pay": "17.79 Hourly"
    },
    {
        "title": "Network Administrator",
        "location": "Portland OR",
        "lat": 45.5051,
        "lon": -122.675,
        "pay": "102,000 Annually"
    },
    {
        "title": "User Support Specialist",
        "location": "Frederick MD USA",
        "lat": 39.4143,
        "lon": -77.4105,
        "pay": "27.07/hr evenly distributed over 22 pays (1791.54 bimonthly August to June) Annually"
    },
    {
        "title": "Systems Administrator",
        "location": "Nashville US",
        "lat": 36.1627,
        "lon": -86.7816,
        "pay": "29 Hourly"
    },
    {
        "title": "Cloud Applications Specialist II",
        "location": "Georgia USA",
        "lat": 32.1656,
        "lon": -82.9001,
        "pay": "118965 Annually"
    },
    {
        "title": "Director of Information Technology",
        "location": "Las Vegas",
        "lat": 36.1699,
        "lon": -115.1398,
        "pay": "103,000 Annually"
    },
    {
        "title": "Desktop Systems Administrator II",
        "location": "Sioux Falls USA",
        "lat": 43.5499,
        "lon": -96.7003,
        "pay": "67,000 Annually"
    },
    {
        "title": "IT Helpdesk Operator",
        "location": "Valletta Malta",
        "lat": 35.8989,
        "lon": 14.5146,
        "pay": "30000 Annually"
    },
    {
        "title": "UK IT Operations Engineer",
        "location": "Warwick",
        "lat": 41.7001,
        "lon": -71.4162,
        "pay": "50500 Annually"
    },
    {
        "title": "IT Director",
        "location": "Houston TX",
        "lat": 29.7604,
        "lon": -95.3698,
        "pay": "$70,000 Annually"
    },
    {
        "title": "System Administrator",
        "location": "Philippines",
        "lat": 13.4125,
        "lon": 122.5632,
        "pay": "12830 USD Annually"
    },
    {
        "title": "Teir 1 technician",
        "location": "Orange united states",
        "lat": 33.7879,
        "lon": -117.8531,
        "pay": "30 Hourly"
    },
    {
        "title": "Systems Administrator ",
        "location": "Lindsay Tulare",
        "lat": 36.1974,
        "lon": -119.0922,
        "pay": "60000 - 95000. Currently at 87000 after 2.5 years on the job. Annually"
    },
    {
        "title": "Engineer",
        "location": "Stevens Point USA",
        "lat": 44.5236,
        "lon": -89.5746,
        "pay": "$44,000 Hourly"
    },
    {
        "title": "Technology Consultant",
        "location": "Boston USA",
        "lat": 42.3601,
        "lon": -71.0589,
        "pay": "$64,697 Annually"
    },
    {
        "title": "IT Manager",
        "location": "Sioux Falls SD",
        "lat": 43.5446,
        "lon": -96.7311,
        "pay": "110,000 Annually"
    },
    {
        "title": "Service Desk Technician",
        "location": "Mount Holly USA",
        "lat": 39.9943,
        "lon": -74.816,
        "pay": "48,000 Hourly"
    },
    {
        "title": "Head of IT",
        "location": "Chelmsford",
        "lat": 51.7356,
        "lon": 0.468,
        "pay": "82150 Annually"
    },
    {
        "title": "Web Support Technician",
        "location": "Auckland NZ",
        "lat": -36.8485,
        "lon": 174.7633,
        "pay": "$25.15 Hourly"
    },
    {
        "title": "Teir 2 support",
        "location": "St. Louis united states of America",
        "lat": 38.627,
        "lon": -90.1994,
        "pay": "20 Hourly"
    },
    {
        "title": "meat industrial plant IT Tecnician",
        "location": "Barcelona Spain",
        "lat": 41.3851,
        "lon": 2.1734,
        "pay": "37920 Annually"
    },
    {
        "title": "IT Technician",
        "location": "Spokane WA",
        "lat": 47.6588,
        "lon": -117.426,
        "pay": "32.14 Hourly"
    },
    {
        "title": "Computer Operator",
        "location": "Phoenix USA",
        "lat": 33.4484,
        "lon": -112.074,
        "pay": "$24.39 Hourly"
    },
    {
        "title": "OnSite IT Engineer ",
        "location": "Scarborough UK",
        "lat": 54.2831,
        "lon": -0.3997,
        "pay": "35380 Annually"
    },
    {
        "title": "Systems Support",
        "location": "Cape Town South Africa",
        "lat": -33.9249,
        "lon": 18.4241,
        "pay": "10 Hourly"
    },
    {
        "title": "Managing Partner",
        "location": "Wilmington NC",
        "lat": 34.2104,
        "lon": -77.8868,
        "pay": "70k Annually"
    },
    {
        "title": "Head of IT",
        "location": "Carlisle UK",
        "lat": 54.8924,
        "lon": -2.932,
        "pay": "90000 Annually"
    },
    {
        "title": "Systems Administrator",
        "location": "Little Rock AR",
        "lat": 34.7465,
        "lon": -92.2896,
        "pay": "65000 Annually"
    },
    {
        "title": "ICT Contract Manager ",
        "location": "Cumbria",
        "lat": 54.8924,
        "lon": -2.932,
        "pay": "62500 Annually"
    },
    {
        "title": "Service desk",
        "location": "Poland",
        "lat": 51.9194,
        "lon": 19.1451,
        "pay": "12 Annually"
    },
    {
        "title": "Data and Reporting Analyst",
        "location": "Clarks Green USA",
        "lat": 41.5008,
        "lon": -75.6972,
        "pay": "70,000 Annually"
    },
    {
        "title": "Support Analyst II",
        "location": "Mainland USA",
        "lat": 40.4282,
        "lon": -86.9134,
        "pay": "$72,245.94 Annually"
    },
    {
        "title": "Technical Support Engineer",
        "location": "Philadelphia",
        "lat": 39.9526,
        "lon": -75.1652,
        "pay": "61,000 Annually"
    },
    {
        "title": "NOC tech",
        "location": "Orlando",
        "lat": 28.5383,
        "lon": -81.3792,
        "pay": "31.25 Hourly"
    },
    {
        "title": "Production Support Specialist ",
        "location": "Laramie WY",
        "lat": 41.3114,
        "lon": -105.5911,
        "pay": "49000 Annually"
    },
    {
        "title": "System engineer ",
        "location": "Los Angeles",
        "lat": 34.0522,
        "lon": -118.2437,
        "pay": "110000 Annually"
    },
    {
        "title": "Senior IT Support Technician ",
        "location": "South Africa",
        "lat": -30.5595,
        "lon": 22.9375,
        "pay": "156 Annually"
    },
    {
        "title": "IT Analyst",
        "location": "Hartford CT",
        "lat": 41.7658,
        "lon": -72.6734,
        "pay": "59 Hourly"
    },
    {
        "title": "It support technician",
        "location": "Watsonville USA",
        "lat": 36.9102,
        "lon": -121.7569,
        "pay": "29 Hourly"
    },
    {
        "title": "Information Security Engineer",
        "location": "Mission Viejo California",
        "lat": 33.6,
        "lon": -117.6719,
        "pay": "125,000 Annually"
    },
    {
        "title": "Healthcare IT Analyst",
        "location": "Eugene OR",
        "lat": 44.0521,
        "lon": -123.0868,
        "pay": "75000 Annually"
    },
    {
        "title": "Cybersecurity Engineer",
        "location": "Newport United States",
        "lat": 39.9289,
        "lon": -74.9596,
        "pay": "$96,000 Annually"
    },
    {
        "title": "Junior Application Support Analyst",
        "location": "Frederick MD",
        "lat": 39.4143,
        "lon": -77.4105,
        "pay": "60000 Annually"
    },
    {
        "title": "Assistant Computer Systems Administrator ",
        "location": "Tulsa OK",
        "lat": 36.154,
        "lon": -95.9928,
        "pay": "$49,905.00 Annually"
    },
    {
        "title": "Technical Operations Analyst",
        "location": "Markham Ontario",
        "lat": 43.8561,
        "lon": -79.337,
        "pay": "45000 Annually"
    },
    {
        "title": "IS Supervisor",
        "location": "South Dakota USA",
        "lat": 43.9695,
        "lon": -99.9018,
        "pay": "106,000 Annually"
    },
    {
        "title": "Senior analyst",
        "location": "Chandler Arizona USA",
        "lat": 33.3062,
        "lon": -111.8413,
        "pay": "53500 (24.50ish an hour) Annually"
    },
    {
        "title": "Sr. Service Delivery Manager",
        "location": "Philippines",
        "lat": 13.4125,
        "lon": 122.5632,
        "pay": "60,000 Annually"
    },
    {
        "title": "Technician III",
        "location": "Port Townsend US",
        "lat": 48.117,
        "lon": -122.7594,
        "pay": "$22 Hourly"
    },
    {
        "title": "Material Handler ",
        "location": "Sterling Heights USA",
        "lat": 42.5803,
        "lon": -83.0302,
        "pay": "$35.26 Hourly"
    },
    {
        "title": "System Administrator",
        "location": "Biloxi MS USA",
        "lat": 30.396,
        "lon": -88.8853,
        "pay": "38.61 Hourly"
    },
    {
        "title": "Sr Systems Administrator ",
        "location": "Livermore CA",
        "lat": 37.6819,
        "lon": -121.768,
        "pay": "95000 Annually"
    },
    {
        "title": "It consultant ",
        "location": "Lansing MI",
        "lat": 42.7325,
        "lon": -84.5555,
        "pay": "25 Hourly"
    },
    {
        "title": "Infrastructure Engineer",
        "location": "Nebraska USA",
        "lat": 41.4925,
        "lon": -99.9018,
        "pay": "102000 Annually"
    },
    {
        "title": "Senior IT Systems Administrator",
        "location": "Elgin Scotland",
        "lat": 56.4637,
        "lon": -2.97,
        "pay": "56875 Annually"
    },
    {
        "title": "System Admin",
        "location": "Halifax Canada",
        "lat": 44.6488,
        "lon": -63.5752,
        "pay": "65000 Annually"
    },
    {
        "title": "vCIO",
        "location": "Houston TX",
        "lat": 29.7604,
        "lon": -95.3698,
        "pay": "120000 Annually"
    },
    {
        "title": "IT Manager",
        "location": "England",
        "lat": 52.3555,
        "lon": -1.1743,
        "pay": "36000 Annually"
    },
    {
        "title": "Technical Services Lead",
        "location": "Columbus OH",
        "lat": 39.9623,
        "lon": -82.9988,
        "pay": "$69,000 Annually"
    },
    {
        "title": "Cloud Engineer",
        "location": "Work from Home",
        "lat": 37.0902,
        "lon": -95.7129,
        "pay": "81500 Annually"
    },
    {
        "title": "IT consultant",
        "location": "Saguenay QC",
        "lat": 48.4284,
        "lon": -71.0689,
        "pay": "90 Hourly"
    },
    {
        "title": "Global Head of IT",
        "location": "Douglas Isle of Man",
        "lat": 54.2361,
        "lon": -4.5481,
        "pay": "148750 Annually"
    },
    {
        "title": "Customer Care and IT Support",
        "location": "Hamilton New Zealand",
        "lat": -37.787,
        "lon": 175.2793,
        "pay": "16.08 Hourly"
    },
    {
        "title": "SR IT Coordinator ",
        "location": "Salta Argentina",
        "lat": -24.7829,
        "lon": -65.4232,
        "pay": "30000 Annually"
    },
    {
        "title": "IT technician",
        "location": "Florence Italy",
        "lat": 43.7696,
        "lon": 11.2558,
        "pay": "25000 Annually"
    },
    {
        "title": "Helpdesk technician",
        "location": "Doha Qatar",
        "lat": 25.2854,
        "lon": 51.531,
        "pay": "7.1 Annually"
    },
    {
        "title": "IT Manager",
        "location": "Toledo USA",
        "lat": 41.6528,
        "lon": -83.5379,
        "pay": "85000 Annually"
    },
    {
        "title": "IT Specialist II",
        "location": "Peoria IL US",
        "lat": 40.6936,
        "lon": -89.5889,
        "pay": "55,000 Annually"
    },
    {
        "title": "SysAdmin",
        "location": "Syracuse NY",
        "lat": 43.0481,
        "lon": -76.1474,
        "pay": "$78,000 Annually"
    },
    {
        "title": "Systems Engineer",
        "location": "Buffalo united states",
        "lat": 42.8864,
        "lon": -78.8784,
        "pay": "91,000 Annually"
    },
    {
        "title": "Lead technical specialist ",
        "location": "Wales",
        "lat": 52.1307,
        "lon": -3.7837,
        "pay": "75000 Annually"
    },
    {
        "title": "IT Support Officer",
        "location": "Wollongong Australia",
        "lat": -34.4278,
        "lon": 150.8931,
        "pay": "51000 Annually"
    },
    {
        "title": "Network Technician ",
        "location": "Port of Spain Trinidad and Tobago",
        "lat": 10.6549,
        "lon": -61.5019,
        "pay": "USD17000.00 Annually"
    },
    {
        "title": "network admin",
        "location": "Kalamazoo united states",
        "lat": 42.2917,
        "lon": -85.5872,
        "pay": "80 Hourly"
    },
    {
        "title": "Fintech Technical Analyst",
        "location": "Melbourne Australia",
        "lat": -37.8136,
        "lon": 144.9631,
        "pay": "40.5 Annually"
    },
    {
        "title": "Field Engineer ",
        "location": "Virginia",
        "lat": 37.4316,
        "lon": -78.6569,
        "pay": "70,000 Annually"
    },
    {
        "title": "End User Support Analyst I",
        "location": "Roanoke Rapids NC",
        "lat": 36.4613,
        "lon": -77.6548,
        "pay": "18 Hourly"
    },
    {
        "title": "Systems Engineer ",
        "location": "Atlanta",
        "lat": 33.749,
        "lon": -84.388,
        "pay": "70,000 Annually"
    },
    {
        "title": "GLOBAL TECHNOLOGY SERVICES technician",
        "location": "Springfield USA",
        "lat": 37.2086,
        "lon": -93.2923,
        "pay": "80,000 Annually"
    },
    {
        "title": "IT Support Technician III ",
        "location": "Phoenix AZ",
        "lat": 33.4484,
        "lon": -112.074,
        "pay": "$39.75 Hourly"
    },
    {
        "title": "Systems administrator ",
        "location": "Lebanon Oregon USA",
        "lat": 44.5369,
        "lon": -122.905,
        "pay": "74000 Annually"
    },
    {
        "title": "Enterprise Support Technician. ",
        "location": "Dublin Ireland",
        "lat": 53.3498,
        "lon": -6.2603,
        "pay": "86500 Annually"
    },
    {
        "title": "sole operator of a business",
        "location": "Juarez Mexico",
        "lat": 31.6904,
        "lon": -106.4245,
        "pay": "20 Hourly"
    },
    {
        "title": "District Technology Director ",
        "location": "Burlington CO USA",
        "lat": 39.3125,
        "lon": -102.2707,
        "pay": "$51,000 Annually"
    },
    {
        "title": "IT Manager",
        "location": "Portsmouth UK",
        "lat": 50.8167,
        "lon": -1.0833,
        "pay": "90000 Annually"
    },
    {
        "title": "Software Engineer ",
        "location": "Minneapolis MN",
        "lat": 44.9778,
        "lon": -93.265,
        "pay": "72,000 Annually"
    },
    {
        "title": "Senior technical support engioneer",
        "location": "Champaign USA",
        "lat": 40.1164,
        "lon": -88.2434,
        "pay": "118000 Annually"
    },
    {
        "title": "Senior infrastructure engineer",
        "location": "Manhattan USA",
        "lat": 40.7831,
        "lon": -73.9712,
        "pay": "155000 Annually"
    },
    {
        "title": "3rd Line IT Support Engineer ",
        "location": "Shrewsbury",
        "lat": 52.706,
        "lon": -2.7416,
        "pay": "60000 Annually"
    },
    {
        "title": "Systems Administrator",
        "location": "Troy MI USA",
        "lat": 42.6064,
        "lon": -83.1498,
        "pay": "68.5 Annually"
    },
    {
        "title": "Systems Administrator",
        "location": "Oklahoma City OK",
        "lat": 35.4676,
        "lon": -97.5164,
        "pay": "47,500 Annually"
    },
    {
        "title": "IT Analyst",
        "location": "London United Kingdom",
        "lat": 51.5074,
        "lon": -0.1278,
        "pay": "47000 Annually"
    },
    {
        "title": "MSP technician",
        "location": "Huntsville AL",
        "lat": 34.7304,
        "lon": -86.5861,
        "pay": "$17 Hourly"
    },
    {
        "title": "DevOps Techinical Lead",
        "location": "Scotland",
        "lat": 56.4907,
        "lon": -4.2026,
        "pay": "84500 Annually"
    },
    {
        "title": "vCIO",
        "location": "Montgomery US",
        "lat": 32.3668,
        "lon": -86.2999,
        "pay": "$80,000 Annually"
    },
    {
        "title": "IT Project Manager ",
        "location": "Dublin Ireland",
        "lat": 53.3498,
        "lon": -6.2603,
        "pay": "44306 Annually"
    },
    {
        "title": "System Admin ",
        "location": "Athens Greece",
        "lat": 37.9838,
        "lon": 23.7275,
        "pay": "15177 Annually"
    },
    {
        "title": "Owner",
        "location": "Forster NSW Australia",
        "lat": -32.1788,
        "lon": 152.5116,
        "pay": "75 Hourly"
    },
    {
        "title": "Systems Administrator",
        "location": "Westerville OH USA",
        "lat": 40.1262,
        "lon": -82.9291,
        "pay": "60000 Annually"
    },
    {
        "title": "Senior System Analyst",
        "location": "Blue Springs USA",
        "lat": 39.015,
        "lon": -94.2722,
        "pay": "68000 Annually"
    },
    {
        "title": "Systems Support Technician",
        "location": "St. Augustine FL",
        "lat": 29.9012,
        "lon": -81.3124,
        "pay": "27.92 Hourly"
    },
    {
        "title": "Senior Support Technician",
        "location": "Boston MA",
        "lat": 42.3601,
        "lon": -71.0589,
        "pay": "80,000 Annually"
    },
    {
        "title": "Mac Engineering Team Lead/Project Manager",
        "location": "Rockville MD",
        "lat": 39.0834,
        "lon": -77.1553,
        "pay": "133000 Annually"
    },
    {
        "title": "IT Administrator ",
        "location": "Sioux Falls USA",
        "lat": 43.5446,
        "lon": -96.7311,
        "pay": "105000 Annually"
    },
    {
        "title": "System architect",
        "location": "Cleveland USA",
        "lat": 41.4993,
        "lon": -81.6944,
        "pay": "112,000 Annually"
    },
    {
        "title": "Level III Technician ",
        "location": "Pittsburgh USA",
        "lat": 40.4406,
        "lon": -79.9959,
        "pay": "34.25 Hourly"
    },
    {
        "title": "Network Engineer",
        "location": "Denver Colorado",
        "lat": 39.7392,
        "lon": -104.9903,
        "pay": "$81,000 Annually"
    },
    {
        "title": "Senior Security Analyst",
        "location": "Austin USA",
        "lat": 30.2672,
        "lon": -97.7431,
        "pay": "$100,000 Annually"
    },
    {
        "title": "Director of Operations & IT",
        "location": "Orange County CA",
        "lat": 33.7175,
        "lon": -117.8311,
        "pay": "165,000 Annually"
    },
    {
        "title": "Aws solutions architect ",
        "location": "Tampa USA",
        "lat": 27.9506,
        "lon": -82.4572,
        "pay": "158,000 Annually"
    },
    {
        "title": "IT Specialist",
        "location": "Pine Knot KY",
        "lat": 36.6792,
        "lon": -84.4787,
        "pay": "67896 Annually"
    },
    {
        "title": "Cloud Solution Architect",
        "location": "Melbourne Australia",
        "lat": -37.8136,
        "lon": 144.9631,
        "pay": "220000 Annually"
    },
    {
        "title": "Infrastructure Engineer",
        "location": "Wakefield United Kingdom",
        "lat": 53.6833,
        "lon": -1.5,
        "pay": "45000 Annually"
    },
    {
        "title": "Network Administrator ",
        "location": "Indianapolis",
        "lat": 39.7684,
        "lon": -86.1581,
        "pay": "75,775 Annually"
    },
    {
        "title": "Platform Engineer (Mid)",
        "location": "London United Kingdom",
        "lat": 51.5074,
        "lon": -0.1278,
        "pay": "75798 Annually"
    },
    {
        "title": "Help Desk Technician II",
        "location": "Jefferson USA",
        "lat": 39.8386,
        "lon": -90.6772,
        "pay": "23.09 Hourly"
    },
    {
        "title": "IT Manager",
        "location": "Calhoun USA",
        "lat": 32.2704,
        "lon": -92.4061,
        "pay": "106000 Annually"
    },
    {
        "title": "DevOps Specialist",
        "location": "Tartu Estonia",
        "lat": 58.3786,
        "lon": 26.7293,
        "pay": "38 Annually"
    },
    {
        "title": "Sr. Network Technician ",
        "location": "Cortland New York",
        "lat": 42.6012,
        "lon": -76.1805,
        "pay": "73357 Annually"
    },
    {
        "title": "Associate Software Engineer",
        "location": "Findlay",
        "lat": 41.0442,
        "lon": -83.6499,
        "pay": "82000 Annually"
    },
    {
        "title": "Assistant Director of IT",
        "location": "Campbellsville USA",
        "lat": 37.3434,
        "lon": -85.3419,
        "pay": "52,000 Annually"
    },
    {
        "title": "Service Desk Analyst",
        "location": "Seattle WA USA",
        "lat": 47.6062,
        "lon": -122.3321,
        "pay": "$28.85 Hourly"
    },
    {
        "title": "Service Desk Technician Level 2",
        "location": "Sydney Australia",
        "lat": -33.8688,
        "lon": 151.2093,
        "pay": "$37,000 Annually"
    },
    {
        "title": "Cyber Operations Analyst",
        "location": "Northern Virginia USA",
        "lat": 38.9072,
        "lon": -77.0369,
        "pay": "$118,000 Annually"
    },
    {
        "title": "Senior Platforms Service Manager",
        "location": "Philadelphia United States",
        "lat": 39.9526,
        "lon": -75.1652,
        "pay": "150,000.00 Annually"
    },
    {
        "title": "IT Analyst",
        "location": "Mount Prospect US",
        "lat": 42.0664,
        "lon": -87.9373,
        "pay": "26 Hourly"
    },
    {
        "title": "Senior QA Engineer",
        "location": "Grand Cayman Cayman Islands",
        "lat": 19.3293,
        "lon": -81.38,
        "pay": "99000 Annually"
    },
    {
        "title": "Technology Consultant",
        "location": "Louisville KY USA",
        "lat": 38.2527,
        "lon": -85.7585,
        "pay": "65000 Annually"
    },
    {
        "title": "IT Manager",
        "location": "Madison USA",
        "lat": 43.0731,
        "lon": -89.4012,
        "pay": "101,000 Annually"
    },
    {
        "title": "Systems Analyst ",
        "location": "Portland USA",
        "lat": 45.5051,
        "lon": -122.675,
        "pay": "87000 Annually"
    },
    {
        "title": "Help Desk",
        "location": "Austin USA",
        "lat": 30.2672,
        "lon": -97.7431,
        "pay": "$27.96 Hourly"
    },
    {
        "title": "IT Site Lead",
        "location": "Union City IN USA",
        "lat": 40.201,
        "lon": -84.8065,
        "pay": "110,000 Annually"
    },
    {
        "title": "Systems administrator ",
        "location": "Aberdeen USA",
        "lat": 45.4643,
        "lon": -98.4861,
        "pay": "60000 Annually"
    },
    {
        "title": "Service Desk Manager",
        "location": "Kansas City MO USA",
        "lat": 39.0997,
        "lon": -94.5786,
        "pay": "80000 Annually"
    },
    {
        "title": "IT Systems Engineer ",
        "location": "Shelbyville TN",
        "lat": 35.4837,
        "lon": -86.4608,
        "pay": "113300 Annually"
    },
    {
        "title": "Server Administrator",
        "location": "Clyde USA",
        "lat": 41.3051,
        "lon": -82.9785,
        "pay": "50,960 Annually"
    },
    {
        "title": "Help Desk",
        "location": "Chandler Arizona USA",
        "lat": 33.3062,
        "lon": -111.8413,
        "pay": "20 Hourly"
    },
    {
        "title": "System Administrator ",
        "location": "Naples USA",
        "lat": 26.142,
        "lon": -81.7948,
        "pay": "$90,000 Annually"
    },
    {
        "title": "CTO",
        "location": "Idaho",
        "lat": 45.677,
        "lon": -111.0429,
        "pay": "350000 Annually"
    },
    {
        "title": "IT Administrator ",
        "location": "Sparks NV",
        "lat": 39.5359,
        "lon": -119.7157,
        "pay": "34 Hourly"
    },
    {
        "title": "Senior Endpoint Administrator",
        "location": "Brisbane Australia",
        "lat": -27.4698,
        "lon": 153.0251,
        "pay": "79895 Annually"
    },
    {
        "title": "Field support",
        "location": "Amarillo TX USA",
        "lat": 35.2219,
        "lon": -101.8313,
        "pay": "39.76 Hourly"
    },
    {
        "title": "Technical Director",
        "location": "Indianapolis US",
        "lat": 39.7684,
        "lon": -86.1581,
        "pay": "250000 Annually"
    },
    {
        "title": "IT Manager",
        "location": "Melbourne Australia",
        "lat": -37.8136,
        "lon": 144.9631,
        "pay": "$130,000 Annually"
    },
    {
        "title": "Systems Engineer",
        "location": "Argyle USA",
        "lat": 33.1212,
        "lon": -97.1831,
        "pay": "57,750 Annually"
    },
    {
        "title": "Information Systems Specialist 1",
        "location": "Birmingham United States",
        "lat": 33.5207,
        "lon": -86.8025,
        "pay": "20.26 Hourly"
    },
    {
        "title": "Client Tech Analyst 2",
        "location": "Detroit MI USA",
        "lat": 42.3314,
        "lon": -83.0458,
        "pay": "72800 Annually"
    },
    {
        "title": "365 Expert",
        "location": "Minnesota",
        "lat": 46.7296,
        "lon": -94.6859,
        "pay": "$299 Hourly"
    },
    {
        "title": "Service Technician ",
        "location": "Gibson City IL",
        "lat": 40.4576,
        "lon": -88.3796,
        "pay": "52,500 Annually"
    },
    {
        "title": "Service Technician ",
        "location": "Gibson City IL",
        "lat": 40.4576,
        "lon": -88.3796,
        "pay": "52,500 Annually"
    },
    {
        "title": "IT Assistant",
        "location": "Basking Ridge NJ USA",
        "lat": 40.7062,
        "lon": -74.5499,
        "pay": "22.5 Hourly"
    },
    {
        "title": "Technical Support II",
        "location": "Seattle USA",
        "lat": 47.6062,
        "lon": -122.3321,
        "pay": "$29.51 Hourly"
    },
    {
        "title": "Systems Engineer",
        "location": "Nashville USA",
        "lat": 36.1627,
        "lon": -86.7816,
        "pay": "$100,000.00 Annually"
    },
    {
        "title": "Junior Systems Administrator",
        "location": "Chicago United States",
        "lat": 41.8781,
        "lon": -87.6298,
        "pay": "62,000 Annually"
    },
    {
        "title": "IT Specialist",
        "location": "Hamilton Ontario",
        "lat": 43.2557,
        "lon": -79.8711,
        "pay": "48,977.78 Annually"
    },
    {
        "title": "Network Administrator",
        "location": "Aylesbury Bucks",
        "lat": 51.8163,
        "lon": -0.8124,
        "pay": "41,688.90 Annually"
    },
    {
        "title": "IT Director",
        "location": "West Des Moines Iowa",
        "lat": 41.5772,
        "lon": -93.7113,
        "pay": "$150,000 Annually"
    },
    {
        "title": "Service Desk Technician ",
        "location": "Omaha NE USA",
        "lat": 41.2565,
        "lon": -95.9345,
        "pay": "20.19 Hourly"
    },
    {
        "title": "Infrastructure Engineer ",
        "location": "Brisbane Australia",
        "lat": -27.4698,
        "lon": 153.0251,
        "pay": "$85,000 Annually"
    },
    {
        "title": "Systems Engineer",
        "location": "Deerwood USA",
        "lat": 34.713,
        "lon": -83.3949,
        "pay": "30 Hourly"
    },
    {
        "title": "Systems Engineer",
        "location": "Columbus USA",
        "lat": 39.9612,
        "lon": -82.9988,
        "pay": "89000 Annually"
    },
    {
        "title": "Network Engineer",
        "location": "Baton Rouge US",
        "lat": 30.4515,
        "lon": -91.1871,
        "pay": "$120,000 Annually"
    },
    {
        "title": "IT support associate",
        "location": "Stockton USA",
        "lat": 37.9577,
        "lon": -121.2908,
        "pay": "27.72 Hourly"
    },
    {
        "title": "Network Specialist II",
        "location": "Mobile US",
        "lat": 30.6954,
        "lon": -88.0399,
        "pay": "40/hr Hourly"
    },
    {
        "title": "Professional services engineer",
        "location": "Greenville SC USA",
        "lat": 34.8526,
        "lon": -82.394,
        "pay": "110000 Annually"
    },
    {
        "title": "IT Business Analyst",
        "location": "Columbus Ohio USA",
        "lat": 39.9612,
        "lon": -82.9988,
        "pay": "101,000 Annually"
    },
    {
        "title": "IT Support Technican",
        "location": "Albany ny",
        "lat": 42.6526,
        "lon": -73.7562,
        "pay": "21.5 Hourly"
    },
    {
        "title": "System engineer III",
        "location": "Menomonie United States",
        "lat": 44.8755,
        "lon": -91.9193,
        "pay": "74000 Annually"
    },
    {
        "title": "Datacentre & Operations Lead",
        "location": "Sydney Australia",
        "lat": -33.8688,
        "lon": 151.2093,
        "pay": "36/hr Hourly"
    },
    {
        "title": "Team Lead",
        "location": "Scott AFB IL",
        "lat": 38.5422,
        "lon": -89.8553,
        "pay": "55k Annually"
    },
    {
        "title": "Cyber Security Engineer",
        "location": "Canberra Australia",
        "lat": -35.2809,
        "lon": 149.13,
        "pay": "44 Hourly"
    },
    {
        "title": "Platform Engineer",
        "location": "San Antonio Texas",
        "lat": 29.4241,
        "lon": -98.4936,
        "pay": "52800 Annually"
    },
    {
        "title": "IT Supervisor",
        "location": "Grand Rapids Michigan USA",
        "lat": 42.9634,
        "lon": -85.6681,
        "pay": "86000 annual salary Annually"
    },
    {
        "title": "Regional IT Technician",
        "location": "Eastbourne Uk",
        "lat": 50.7687,
        "lon": 0.2845,
        "pay": "31,580 Annually"
    },
    {
        "title": "Senior IT Systems Engineer",
        "location": "Florence SC",
        "lat": 34.1954,
        "lon": -79.7626,
        "pay": "$86,200 Annually"
    },
    {
        "title": "Cloud Support Engineer ",
        "location": "Raleigh USA",
        "lat": 35.7796,
        "lon": -78.6382,
        "pay": "104,400 Annually"
    },
    {
        "title": "Director IT Infrastructure ",
        "location": "Rock Hill SC United States",
        "lat": 34.9249,
        "lon": -81.0251,
        "pay": "164500 Annually"
    },
    {
        "title": "Support Engineer",
        "location": "Belgium",
        "lat": 50.5039,
        "lon": 4.4699,
        "pay": "110 Hourly"
    },
    {
        "title": "Help Desk Analyst ",
        "location": "Burlington MA",
        "lat": 42.5048,
        "lon": -71.1956,
        "pay": "80,000 Annually"
    },
    {
        "title": "Help Desk 2",
        "location": "Salt Lake City USA",
        "lat": 40.7608,
        "lon": -111.891,
        "pay": "34 Hourly"
    },
    {
        "title": "Technical Support Specialist ",
        "location": "Kettering OH USA",
        "lat": 39.6895,
        "lon": -84.1689,
        "pay": "22 Hourly"
    },
    {
        "title": "System Administrator",
        "location": "Pittsburgh USA",
        "lat": 40.4406,
        "lon": -79.9959,
        "pay": "60000 Annually"
    },
    {
        "title": "Field engineer",
        "location": "Denver CO",
        "lat": 39.7392,
        "lon": -104.9903,
        "pay": "25/HR Hourly"
    },
    {
        "title": "Director of IT",
        "location": "Kansas City KS",
        "lat": 39.1155,
        "lon": -94.6268,
        "pay": "110,000 Annually"
    },
    {
        "title": "IT Specialist",
        "location": "Philippines",
        "lat": 13.4125,
        "lon": 122.565,
        "pay": "6 Hourly"
    },
    {
        "title": "Cloud Support Engineer",
        "location": "Baton Rouge USA",
        "lat": 30.4515,
        "lon": -91.1871,
        "pay": "37 Hourly"
    },
    {
        "title": "Technical Analyst",
        "location": "Kent United Kingdom",
        "lat": 51.2809,
        "lon": 0.52,
        "pay": "41,688.90 Annually"
    },
    {
        "title": "Information Security Engineer",
        "location": "San Juan Puerto Rico",
        "lat": 18.4655,
        "lon": -66.1057,
        "pay": "$82,000 Annually"
    },
    {
        "title": "IT Manager",
        "location": "Michigan USA",
        "lat": 44.3148,
        "lon": -85.6024,
        "pay": "90000 Annually"
    },
    {
        "title": "Application Analyst",
        "location": "Greeley CO USA",
        "lat": 40.4233,
        "lon": -104.7091,
        "pay": "102000 Annually"
    },
    {
        "title": "Network Engineer",
        "location": "Central Valley NY USA",
        "lat": 41.3524,
        "lon": -74.1265,
        "pay": "50. 00 Hourly"
    },
    {
        "title": "Support Manager",
        "location": "Stockport United Kingdom",
        "lat": 53.4106,
        "lon": -2.1575,
        "pay": "\u00a334000 Annually"
    },
    {
        "title": "Helpdesk Level 1 & 2",
        "location": "Ottawa Canada",
        "lat": 45.4215,
        "lon": -75.6972,
        "pay": "18.57 Hourly"
    },
    {
        "title": "IT Technical Security Engineer-Level 1",
        "location": "Chicago metro",
        "lat": 41.8781,
        "lon": -87.6298,
        "pay": "24.05 Hourly"
    },
    {
        "title": "First response technical engineer.",
        "location": "Cardiff UK",
        "lat": 51.4816,
        "lon": -3.1791,
        "pay": "28550 Annually"
    },
    {
        "title": "Network Administrator",
        "location": "Atlanta Georgia USA",
        "lat": 33.749,
        "lon": -84.388,
        "pay": "90,000 Annually"
    },
    {
        "title": "Client Tech Analyst Sr",
        "location": "Sioux City USA",
        "lat": 42.499,
        "lon": -96.4003,
        "pay": "37 Hourly"
    },
    {
        "title": "Sr IT Consultant",
        "location": "Central Ohio",
        "lat": 40.4173,
        "lon": -82.9071,
        "pay": "65,000 Annually"
    },
    {
        "title": "IT Manager",
        "location": "Joplin MO US",
        "lat": 37.0842,
        "lon": -94.5133,
        "pay": "95,000 Annually"
    },
    {
        "title": "Service tech",
        "location": "Hawaii USA",
        "lat": 21.307,
        "lon": -157.8584,
        "pay": "28 Hourly"
    },
    {
        "title": "IT technician ",
        "location": "Salt Lake City Utah USA",
        "lat": 40.7608,
        "lon": -111.891,
        "pay": "73000 Annually"
    },
    {
        "title": "IT Systems Administrator",
        "location": "Midwest USA",
        "lat": 41.5,
        "lon": -90.0,
        "pay": "95,000 Annually"
    },
    {
        "title": "Director SOC",
        "location": "New York",
        "lat": 40.7128,
        "lon": -74.006,
        "pay": "190,000 Annually"
    },
    {
        "title": "Applications Analyst",
        "location": "Indiana USA",
        "lat": 40.2672,
        "lon": -86.1349,
        "pay": "57,000.00 Annually"
    },
    {
        "title": "Network Architect",
        "location": "Portland Oregon USA",
        "lat": 45.5051,
        "lon": -122.675,
        "pay": "164000 Annually"
    },
    {
        "title": "Systems administrator",
        "location": "Chicago IL",
        "lat": 41.8781,
        "lon": -87.6298,
        "pay": "107,000 Annually"
    },
    {
        "title": "IT Vocational Instructor ",
        "location": "Worcester Ma",
        "lat": 42.2626,
        "lon": -71.8023,
        "pay": "73496 Annually"
    },
    {
        "title": "IT Support Specialist",
        "location": "Lubbock USA",
        "lat": 33.5779,
        "lon": -101.8552,
        "pay": "$20.75 Hourly"
    },
    {
        "title": "IT Field Specislist",
        "location": "Menomonee Falls WI",
        "lat": 43.1789,
        "lon": -88.1173,
        "pay": "30 Hourly"
    },
    {
        "title": "IT Analyst",
        "location": "Hanford USA",
        "lat": 36.3272,
        "lon": -119.6456,
        "pay": "32.21 Hourly"
    },
    {
        "title": "IT Manager",
        "location": "Las Vegas NV",
        "lat": 36.1699,
        "lon": -115.1398,
        "pay": "152,000 Annually"
    },
    {
        "title": "IT Manager ",
        "location": "Ontario CaliforniaUSA",
        "lat": 34.0479,
        "lon": -117.6023,
        "pay": "110,000 Annually"
    },
    {
        "title": "It field/network engineer",
        "location": "United Kingdom",
        "lat": 55.3781,
        "lon": -3.436,
        "pay": "37900 Annually"
    },
    {
        "title": "It admin",
        "location": "Malta",
        "lat": 35.9375,
        "lon": 14.3754,
        "pay": "28,000 Annually"
    },
    {
        "title": "System Administrator",
        "location": "Cleveland USA",
        "lat": 41.4993,
        "lon": -81.6944,
        "pay": "$45,000 Annually"
    },
    {
        "title": "System administrator ",
        "location": "Baku Azerbaijan",
        "lat": 40.4093,
        "lon": 49.8671,
        "pay": "11000 Annually"
    },
    {
        "title": "IT TECHNICIAN ",
        "location": "Leduc Canada",
        "lat": 53.261,
        "lon": -113.552,
        "pay": "35600 Annually"
    },
    {
        "title": "Service Desk Analyst Tier 1",
        "location": "Manchester United Kingdom",
        "lat": 53.483,
        "lon": -2.244,
        "pay": "36856 Annually"
    },
    {
        "title": "Senior IT Analyst",
        "location": "Lansing USA",
        "lat": 42.7325,
        "lon": -84.5555,
        "pay": "$93,000 Annually"
    },
    {
        "title": "IT Support Manager",
        "location": "Columbus OH USA",
        "lat": 39.9612,
        "lon": -82.9988,
        "pay": "129,000 Annually"
    },
    {
        "title": "Network Engineer",
        "location": "South Carolina USA",
        "lat": 33.8361,
        "lon": -81.1637,
        "pay": "$30 Hourly"
    },
    {
        "title": "IT Manager",
        "location": "Napa CA",
        "lat": 38.2975,
        "lon": -122.2869,
        "pay": "110,000 Annually"
    },
    {
        "title": "Security Analyst Consultant/Penetration Tester",
        "location": "Connecticut US",
        "lat": 41.6032,
        "lon": -73.0877,
        "pay": "68000 Annually"
    },
    {
        "title": "It tech lounge analyst ",
        "location": "Melbourne Australia",
        "lat": -37.8136,
        "lon": 144.9631,
        "pay": "70426.81 Annually"
    },
    {
        "title": "Field service technician ii",
        "location": "Seattle Washington USA",
        "lat": 47.6062,
        "lon": -122.3321,
        "pay": "23 Hourly"
    },
    {
        "title": "Technology specialists",
        "location": "Minersville PA",
        "lat": 40.6898,
        "lon": -76.2767,
        "pay": "36,400 Annually"
    },
    {
        "title": "IT Manager",
        "location": "DECATUR United states",
        "lat": 40.8077,
        "lon": -88.927,
        "pay": "120000 Annually"
    },
    {
        "title": "IT Manager",
        "location": "Naples Florida",
        "lat": 26.142,
        "lon": -81.7948,
        "pay": "75000 Annually"
    },
    {
        "title": "Operations and Sales Manager ",
        "location": "Fremont CA",
        "lat": 37.5485,
        "lon": -121.9886,
        "pay": "75000 Annually"
    },
    {
        "title": "Database Administrator",
        "location": "Cleveland USA",
        "lat": 41.4993,
        "lon": -81.6944,
        "pay": "138000 Annually"
    },
    {
        "title": "IT Director",
        "location": "Medford OR USA",
        "lat": 42.3265,
        "lon": -122.8756,
        "pay": "127000 Annually"
    },
    {
        "title": "Field technician supervisor/ II ",
        "location": "New York USA",
        "lat": 40.7128,
        "lon": -74.006,
        "pay": "75,000.00 Annually"
    },
    {
        "title": "Senior Network Analyst ",
        "location": "Ottawa Canada",
        "lat": 45.4215,
        "lon": -75.6972,
        "pay": "81650 Annually"
    },
    {
        "title": "Master Sergeant",
        "location": "Washington D.C. USA",
        "lat": 38.9072,
        "lon": -77.0369,
        "pay": "62,000 Annually"
    },
    {
        "title": "IT Director",
        "location": "San Francisco",
        "lat": 37.7749,
        "lon": -122.4194,
        "pay": "220k Annually"
    },
    {
        "title": "System Administrator",
        "location": "Manchester USA",
        "lat": 43.6578,
        "lon": -70.261,
        "pay": "86500 Annually"
    },
    {
        "title": "IT Senior Service Desk Administraror",
        "location": "Australia",
        "lat": -25.2744,
        "lon": 133.7751,
        "pay": "57,336 Annually"
    },
    {
        "title": "NOC Analyst",
        "location": "Dayton OH USA",
        "lat": 39.7589,
        "lon": -84.1916,
        "pay": "86,006 Annually"
    },
    {
        "title": "IT Manager",
        "location": "Columbia MO USA",
        "lat": 38.9517,
        "lon": -92.3341,
        "pay": "80,000 Annually"
    },
    {
        "title": "Information Technology Manager ",
        "location": "Raynham MA USA",
        "lat": 41.9445,
        "lon": -71.1969,
        "pay": "125,000 Annually"
    },
    {
        "title": "Information Security Engineer",
        "location": "Cambridge MA",
        "lat": 42.3736,
        "lon": -71.1097,
        "pay": "140000/yr Annually"
    },
    {
        "title": "It manager",
        "location": "Central Virginia",
        "lat": 37.5522,
        "lon": -77.3925,
        "pay": "140000 Annually"
    },
    {
        "title": "Infrastructure Specialist 3",
        "location": "Columbus Ohio",
        "lat": 39.9612,
        "lon": -82.9988,
        "pay": "50.59 Hourly"
    },
    {
        "title": "Helpdesk Technician",
        "location": "United Kingdom",
        "lat": 55.3781,
        "lon": -3.436,
        "pay": "20.21 Hourly"
    },
    {
        "title": "Senior Access Management Analyst",
        "location": "St. Louis USA",
        "lat": 38.627,
        "lon": -90.1994,
        "pay": "117000 Annually"
    },
    {
        "title": "Systems Analyst",
        "location": "Rochester NY USA",
        "lat": 43.161,
        "lon": -77.6109,
        "pay": "71950 Annually"
    },
    {
        "title": "Systems Engineer",
        "location": "Mayfield OH",
        "lat": 41.5496,
        "lon": -81.4399,
        "pay": "80,000 Annually"
    },
    {
        "title": "Network security engineer ",
        "location": "Virginia Beach USA",
        "lat": 36.8529,
        "lon": -75.978,
        "pay": "128,000 Annually"
    },
    {
        "title": "Systems Engineer 2",
        "location": "Louisville USA",
        "lat": 38.2527,
        "lon": -85.7585,
        "pay": "90000 Annually"
    },
    {
        "title": "Practice Principal",
        "location": "Virginia Beach VA",
        "lat": 36.8529,
        "lon": -75.978,
        "pay": "202,000 Annually"
    },
    {
        "title": "Technical consultant",
        "location": "Malm\u00f6 Sweden",
        "lat": 55.6049,
        "lon": 13.0038,
        "pay": "34000 Annually"
    },
    {
        "title": "Technician",
        "location": "Perth Western Australia",
        "lat": -31.9505,
        "lon": 115.8605,
        "pay": "19.12 Hourly"
    },
    {
        "title": "ICT Operations and Development Manager",
        "location": "Bromley England",
        "lat": 51.4028,
        "lon": 0.0147,
        "pay": "59000 Annually"
    },
    {
        "title": "Cyber Security Architect",
        "location": "Topeka KS",
        "lat": 39.0558,
        "lon": -95.689,
        "pay": "4p.00 Hourly"
    },
    {
        "title": "Data Communications Specialist Lead",
        "location": "Goshen USA",
        "lat": 41.5823,
        "lon": -85.8344,
        "pay": "145000 Annually"
    },
    {
        "title": "Senior Systems Engineer",
        "location": "Albany USA",
        "lat": 42.6526,
        "lon": -73.7562,
        "pay": "33 Hourly"
    },
    {
        "title": "Tier 1 desktop technician",
        "location": "San Antonio Texas United states",
        "lat": 29.4241,
        "lon": -98.4936,
        "pay": "31 Hourly"
    },
    {
        "title": "System Administrator",
        "location": "Oklahoma City USA",
        "lat": 35.4676,
        "lon": -97.5164,
        "pay": "60k Annually"
    },
    {
        "title": "Systems engineer",
        "location": "Sioux falls sd",
        "lat": 43.5446,
        "lon": -96.7311,
        "pay": "94000 Annually"
    },
    {
        "title": "Information Security Manager",
        "location": "Huntsville Alabama USA",
        "lat": 34.7329,
        "lon": -86.5884,
        "pay": "74,000 Annually"
    },
    {
        "title": "IT Director",
        "location": "Charleston SC",
        "lat": 32.7833,
        "lon": -79.9333,
        "pay": "117,000 Annually"
    },
    {
        "title": "Director of IT",
        "location": "Las Vegas NV USA",
        "lat": 36.1699,
        "lon": -115.1398,
        "pay": "135000 Annually"
    },
    {
        "title": "Deployed Radar Engineer",
        "location": "North Yorkshire UK",
        "lat": 54.25,
        "lon": -1.5,
        "pay": "44,200 Annually"
    },
    {
        "title": "Network Engineer II",
        "location": "Franklin TN USA",
        "lat": 35.9251,
        "lon": -86.8689,
        "pay": "104,000 Annually"
    },
    {
        "title": "UNIX Systems Engineer",
        "location": "Omaha NE USA",
        "lat": 41.2565,
        "lon": -95.9345,
        "pay": "80,000 Annually"
    },
    {
        "title": "Service Desk Engineer",
        "location": "Charlotte NC",
        "lat": 35.2271,
        "lon": -80.8431,
        "pay": "58,000 Annually"
    },
    {
        "title": "Server and infrastructure administrator ",
        "location": "Glens falls NY",
        "lat": 43.3118,
        "lon": -73.6455,
        "pay": "80k/yr Hourly"
    },
    {
        "title": "Web development coordinator ",
        "location": "Sacramento USA",
        "lat": 38.5816,
        "lon": -121.4944,
        "pay": "19.36 Hourly"
    },
    {
        "title": "IT Director",
        "location": "Georgia",
        "lat": 32.1656,
        "lon": -82.9001,
        "pay": "58000 Annually"
    },
    {
        "title": "Systems Engineer",
        "location": "Foxborough MA",
        "lat": 42.0654,
        "lon": -71.2478,
        "pay": "60,000 Annually"
    },
    {
        "title": "Project Engineer",
        "location": "Omaha Nebraska",
        "lat": 41.2565,
        "lon": -95.9345,
        "pay": "$22.10 Annually"
    },
    {
        "title": "Director of Information Security ",
        "location": "Lexington USA",
        "lat": 37.9887,
        "lon": -84.4777,
        "pay": "205,000 Annually"
    },
    {
        "title": "Network Administrator",
        "location": "Indianapolis United States",
        "lat": 39.7684,
        "lon": -86.1581,
        "pay": "$80,000 Annually"
    },
    {
        "title": "Senior Service Desk Lead Network Lead",
        "location": "Mt. Vernon WA USA",
        "lat": 48.4216,
        "lon": -122.334,
        "pay": "$72,000 Annually"
    },
    {
        "title": "IT Director",
        "location": "Richmond VA",
        "lat": 37.5407,
        "lon": -77.436,
        "pay": "70000 Annually"
    },
    {
        "title": "Application Support Engineer",
        "location": "Charlotte USA",
        "lat": 35.2271,
        "lon": -80.8431,
        "pay": "120000 Annually"
    },
    {
        "title": "Solutions Architevt ",
        "location": "Atlanta USA",
        "lat": 33.749,
        "lon": -84.388,
        "pay": "161,000 Annually"
    },
    {
        "title": "unified Communication Engineer",
        "location": "USA",
        "lat": 37.0902,
        "lon": -95.7129,
        "pay": "80000 Annually"
    },
    {
        "title": "Network Automation Engineer",
        "location": "Irvine USA",
        "lat": 33.6839,
        "lon": -117.7947,
        "pay": "200000 Annually"
    },
    {
        "title": "System Development Manager",
        "location": "Seattle WA",
        "lat": 47.6062,
        "lon": -122.3321,
        "pay": "195,000 Annually"
    },
    {
        "title": "Bottle washer",
        "location": "Canada",
        "lat": 56.1304,
        "lon": -106.3468,
        "pay": "160000 Annually"
    },
    {
        "title": "IT Supervisor",
        "location": "Akron Ohio",
        "lat": 41.0814,
        "lon": -81.519,
        "pay": "80000 Annually"
    },
    {
        "title": "Red Hat System Administrator",
        "location": "Oak Harbor WA United States",
        "lat": 48.2934,
        "lon": -122.6403,
        "pay": "$86,394.27 Annually"
    },
    {
        "title": "Technical Support Engineer",
        "location": "London United Kingdom",
        "lat": 51.5074,
        "lon": -0.1278,
        "pay": "66,954 Annually"
    },
    {
        "title": "Lead System Technician ",
        "location": "Maryland USA",
        "lat": 39.0458,
        "lon": -76.6413,
        "pay": "28.08 Hourly"
    },
    {
        "title": "Sr Engineer Implementation",
        "location": "Missouri USA",
        "lat": 37.9643,
        "lon": -91.8318,
        "pay": "95000 Annually"
    },
    {
        "title": "Instructional Systems Technologist (in-house AV)",
        "location": "Birmingham Al",
        "lat": 33.5207,
        "lon": -86.8025,
        "pay": "54,500 Hourly"
    },
    {
        "title": "Cybersecurity Architect",
        "location": "Colorado Springs US",
        "lat": 38.8339,
        "lon": -104.8214,
        "pay": "180000 Annually"
    },
    {
        "title": "IT Specialist",
        "location": "Jacksonville NC US",
        "lat": 34.7541,
        "lon": -77.4302,
        "pay": "$27 Hourly"
    },
    {
        "title": "Agency Management Analyst",
        "location": "Trenton NJ",
        "lat": 40.2206,
        "lon": -74.7597,
        "pay": "27 Annually"
    },
    {
        "title": "Business Applications Engineer ",
        "location": "Philadelphia",
        "lat": 39.9526,
        "lon": -75.1652,
        "pay": "83000 Annually"
    },
    {
        "title": "Projects team manager",
        "location": "Columbus United States",
        "lat": 39.9612,
        "lon": -82.9988,
        "pay": "150000 Annually"
    },
    {
        "title": "Tech Lead - Modern BI - Qlik Sense",
        "location": "Toronto Canada",
        "lat": 43.6532,
        "lon": -79.3832,
        "pay": "70,000 Annually"
    },
    {
        "title": "Help Desk II",
        "location": "Prescott AZ (remote for Phoenix)",
        "lat": 34.54,
        "lon": -112.4685,
        "pay": "$22 Hourly"
    },
    {
        "title": "IT Support Technician ",
        "location": "Dallas Tx USA",
        "lat": 32.7767,
        "lon": -96.797,
        "pay": "51,000 Annually"
    },
    {
        "title": "IT Technician",
        "location": "Sunderland UK",
        "lat": 54.9076,
        "lon": -1.3818,
        "pay": "26000 USD Annually"
    },
    {
        "title": "Network Engineer",
        "location": "Newcastle upon Tyne England",
        "lat": 54.9783,
        "lon": -1.6172,
        "pay": "26529 USD or 21000 GBP Annually"
    },
    {
        "title": "Application Engineer",
        "location": "Pittsburgh (PA) United States",
        "lat": 40.4406,
        "lon": -79.9959,
        "pay": "45000 Annually"
    },
    {
        "title": "lvl3 support engineer",
        "location": "Liverpool",
        "lat": 53.4084,
        "lon": -2.9916,
        "pay": "47000 Annually"
    },
    {
        "title": "SYSTEMS PROGRAMMER III ",
        "location": "Pensacola Escambia",
        "lat": 30.4213,
        "lon": -87.2169,
        "pay": "$56,000 Annually"
    },
    {
        "title": "Help desk manager",
        "location": "Mount Laurel NJ USA",
        "lat": 39.9339,
        "lon": -74.9298,
        "pay": "85000 Annually"
    },
    {
        "title": "System Administrator",
        "location": "Sydney Australia",
        "lat": -33.8651,
        "lon": 151.2099,
        "pay": "70,437 Annually"
    },
    {
        "title": "VDI Administrator",
        "location": "New Orleans LA USA",
        "lat": 29.9511,
        "lon": -90.0715,
        "pay": "110000 Hourly"
    },
    {
        "title": "Manager Information Security",
        "location": "Nashville TN",
        "lat": 36.1627,
        "lon": -86.7816,
        "pay": "$115,000 Annually"
    },
    {
        "title": "Desktop II",
        "location": "Hays KS USA",
        "lat": 38.8792,
        "lon": -99.3268,
        "pay": "28 Hourly"
    },
    {
        "title": "Junior Technology Consultant",
        "location": "Lafayette LA USA",
        "lat": 30.2241,
        "lon": -92.0198,
        "pay": "17 Hourly"
    },
    {
        "title": "IT Operations Manager ",
        "location": "Omaha NE USA",
        "lat": 41.2565,
        "lon": -95.9345,
        "pay": "120,000 Annually"
    },
    {
        "title": "IT Support Tech 2",
        "location": "Opelika US",
        "lat": 32.6454,
        "lon": -85.3783,
        "pay": "$21.36 Hourly"
    },
    {
        "title": "IT Infrastructure Manager",
        "location": "Daytona Beach USA",
        "lat": 29.2108,
        "lon": -81.0228,
        "pay": "94000 Annually"
    },
    {
        "title": "Cybersecurity Engineer ",
        "location": "St Louis USA",
        "lat": 38.627,
        "lon": -90.1994,
        "pay": "110,000 Annually"
    },
    {
        "title": "Director of technology",
        "location": "Atlanta TX USA",
        "lat": 33.1165,
        "lon": -94.1677,
        "pay": "95000 Annually"
    },
    {
        "title": "Systems Integration Specialist",
        "location": "Tallahassee FL",
        "lat": 30.4383,
        "lon": -84.2807,
        "pay": "70,000 Annually"
    },
    {
        "title": "IT Support Specialist",
        "location": "Berwick Pennsylvania USA",
        "lat": 41.0534,
        "lon": -76.233,
        "pay": "62000 Annually"
    },
    {
        "title": "IT Support Manager",
        "location": "St. Louis MO USA",
        "lat": 38.627,
        "lon": -90.1994,
        "pay": "115,000 Annually"
    },
    {
        "title": "IT Supervisor ",
        "location": "Mansfield USA",
        "lat": 32.5632,
        "lon": -94.8765,
        "pay": "32.62 Hourly"
    },
    {
        "title": "Service Desk Team Lead",
        "location": "BuffaloNY (USA)",
        "lat": 42.8864,
        "lon": -78.8784,
        "pay": "52,000 Annually"
    },
    {
        "title": "Junior IT administrator ",
        "location": "Lethbridge Canada",
        "lat": 49.6942,
        "lon": -112.8334,
        "pay": "18.55 Hourly"
    },
    {
        "title": "Desktop Engineer",
        "location": "Amsterdam Netherlands",
        "lat": 52.3667,
        "lon": 4.8945,
        "pay": "45$ Hourly"
    },
    {
        "title": "Computer and IT Manager",
        "location": "Beaver Falls PA",
        "lat": 40.7514,
        "lon": -80.3192,
        "pay": "81,200 Annually"
    },
    {
        "title": "Tech specialist level 2",
        "location": "Montreal Canada",
        "lat": 45.5017,
        "lon": -73.5673,
        "pay": "24.75 Hourly"
    },
    {
        "title": "IT Support Specialist",
        "location": "Lexington KY United States",
        "lat": 38.0406,
        "lon": -84.5037,
        "pay": "$50,000 Annually"
    },
    {
        "title": "Systems administrator & inside sales",
        "location": "Vancouver Canada",
        "lat": 49.2827,
        "lon": -123.1207,
        "pay": "57887.12 Annually"
    },
    {
        "title": "System Support Specialist",
        "location": "Kansas City MO USA",
        "lat": 39.0997,
        "lon": -94.5786,
        "pay": "$27 Hourly"
    },
    {
        "title": "IT Manager",
        "location": "Indianapolis US",
        "lat": 39.7684,
        "lon": -86.1581,
        "pay": "82000 Annually"
    },
    {
        "title": "DevOps Engineer II",
        "location": "Irvine",
        "lat": 33.6784,
        "lon": -117.7713,
        "pay": "115k Annually"
    },
    {
        "title": "Level 2 Network technician",
        "location": "Norway",
        "lat": 60.472,
        "lon": 8.4689,
        "pay": "51890 Annually"
    },
    {
        "title": "Project Manager",
        "location": "Grapevine Texas USA",
        "lat": 32.9343,
        "lon": -97.0781,
        "pay": "$66,350 Annually"
    },
    {
        "title": "Sys/LAN Admin ",
        "location": "Phoenix US",
        "lat": 33.4484,
        "lon": -112.074,
        "pay": "68,114 Annually"
    },
    {
        "title": "It manager",
        "location": "Sioux city usa",
        "lat": 42.499,
        "lon": -96.4003,
        "pay": "$60,000 Hourly"
    },
    {
        "title": "Linux and SAN System Administrator junior",
        "location": "Rochester NY US",
        "lat": 43.161,
        "lon": -77.6109,
        "pay": "75625 Annually"
    },
    {
        "title": "Global Help Desk Asset Management",
        "location": "Kingsport USA",
        "lat": 36.5484,
        "lon": -82.5618,
        "pay": "17.71 Hourly"
    },
    {
        "title": "Senior Network Engineer",
        "location": "Columbia USA",
        "lat": 34.0007,
        "lon": -81.0348,
        "pay": "38.46 Hourly"
    },
    {
        "title": "Systems Engineer II",
        "location": "Littleton Ma",
        "lat": 42.5376,
        "lon": -71.4785,
        "pay": "90k Annually"
    },
    {
        "title": "IT Support line 3",
        "location": "Coventry",
        "lat": 52.4068,
        "lon": -1.5197,
        "pay": "50532 Annually"
    },
    {
        "title": "Network administrator ",
        "location": "Syracuse New York",
        "lat": 43.0481,
        "lon": -76.1474,
        "pay": "80000 Annually"
    },
    {
        "title": "Software Development Manager",
        "location": "Dayton Ohio USA",
        "lat": 39.7589,
        "lon": -84.1916,
        "pay": "75000 Annually"
    },
    {
        "title": "Security Engineer",
        "location": "Pleasant Grove USA",
        "lat": 40.3641,
        "lon": -111.7385,
        "pay": "$85,000 Annually"
    },
    {
        "title": "Remote support technician",
        "location": "Middletown",
        "lat": 39.5151,
        "lon": -84.3983,
        "pay": "52,000 Hourly"
    },
    {
        "title": "Senior Embedded Software Engineer",
        "location": "Christchurch New Zealand",
        "lat": -43.5321,
        "lon": 172.6362,
        "pay": "80000 Annually"
    },
    {
        "title": "IT Help Desk Technician",
        "location": "Toronto Canada",
        "lat": 43.6532,
        "lon": -79.3832,
        "pay": "40814 Annually"
    },
    {
        "title": "Tech support L1",
        "location": "Chile",
        "lat": -35.6751,
        "lon": -71.543,
        "pay": "1500 usd monthly Annually"
    },
    {
        "title": "Network Engineer - Security",
        "location": "Michigan USA",
        "lat": 44.3148,
        "lon": -85.6024,
        "pay": "64998 Annually"
    },
    {
        "title": "Level III Support Technician",
        "location": "Oak Brook IL",
        "lat": 41.8376,
        "lon": -87.9616,
        "pay": "35 an hour Hourly"
    },
    {
        "title": "Project Engineer",
        "location": "Morristown USA",
        "lat": 40.7968,
        "lon": -74.4815,
        "pay": "100000 Annually"
    },
    {
        "title": "Help Desk Technician",
        "location": "Utah USA",
        "lat": 39.32,
        "lon": -111.0937,
        "pay": "$48,000 Annually"
    },
    {
        "title": "Director of IT",
        "location": "NYC",
        "lat": 40.7128,
        "lon": -74.0059,
        "pay": "135000k Annually"
    },
    {
        "title": "Sr Windows System Administrator ",
        "location": "Ofallon IL",
        "lat": 38.5923,
        "lon": -89.9109,
        "pay": "94K Annually"
    },
    {
        "title": "IT Staff",
        "location": "Bintan Regency Indonesia",
        "lat": 1.11,
        "lon": 104.46,
        "pay": "146.21 per month Annually"
    },
    {
        "title": "Senior Business Systems Analyst ",
        "location": "Johnstown PA United States",
        "lat": 40.3268,
        "lon": -78.9219,
        "pay": "83,700 Annually"
    },
    {
        "title": "Cloud Engineer",
        "location": "WA USA",
        "lat": 47.7511,
        "lon": -120.7401,
        "pay": "125000 Annually"
    },
    {
        "title": "IT manager",
        "location": "Darwin Australia",
        "lat": -12.4611,
        "lon": 130.8418,
        "pay": "68000 Annually"
    },
    {
        "title": "Assistant director",
        "location": "East TX rural",
        "lat": 32.5007,
        "lon": -94.7405,
        "pay": "48500 Annually"
    },
    {
        "title": "L2 tech support",
        "location": "Detroit United States",
        "lat": 42.3314,
        "lon": -83.0458,
        "pay": "44000 Annually"
    },
    {
        "title": "Systems administrator ",
        "location": "Effingham Illinois",
        "lat": 39.12,
        "lon": -88.5434,
        "pay": "65000 Annually"
    },
    {
        "title": "Installer ",
        "location": "Saskatoon Canada",
        "lat": 52.1332,
        "lon": -106.67,
        "pay": "32000 Annually"
    },
    {
        "title": "IT Security Engineer II",
        "location": "NYC",
        "lat": 40.7128,
        "lon": -74.0059,
        "pay": "$168,000 Annually"
    },
    {
        "title": "System Administrator",
        "location": "Kyle USA",
        "lat": 29.9903,
        "lon": -97.8772,
        "pay": "71500/yr Annually"
    },
    {
        "title": "Technical Analyst",
        "location": "Latrobe PA",
        "lat": 40.3214,
        "lon": -79.4027,
        "pay": "29.39 Hourly"
    },
    {
        "title": "Senior Systems Analyst",
        "location": "Bossier City Louisiana. US",
        "lat": 32.5159,
        "lon": -93.7321,
        "pay": "65000 Annually"
    },
    {
        "title": "Dev Lead",
        "location": "Upstate NY",
        "lat": 43.2994,
        "lon": -74.2179,
        "pay": "100000 Annually"
    },
    {
        "title": "Sr systems engineer ",
        "location": "Philadelphia us",
        "lat": 39.9526,
        "lon": -75.1652,
        "pay": "153000 Annually"
    },
    {
        "title": "Systems Engineer ",
        "location": "YorkPA USA",
        "lat": 39.9626,
        "lon": -76.7279,
        "pay": "75000 Annually"
    },
    {
        "title": "Owner",
        "location": "Auckland New Zealand",
        "lat": -36.8485,
        "lon": 174.7633,
        "pay": "100000 Annually"
    },
    {
        "title": "Helpdesk II",
        "location": "Oakland USA",
        "lat": 37.8044,
        "lon": -122.2711,
        "pay": "39.46 Hourly"
    },
    {
        "title": "Network Install Team Lead",
        "location": "Oklahoma City Oklahoma USA",
        "lat": 35.4676,
        "lon": -97.5164,
        "pay": "$60,000 Annually"
    },
    {
        "title": "CTO",
        "location": "Guyana",
        "lat": 4.8604,
        "lon": -58.9302,
        "pay": "37431 Annually"
    },
    {
        "title": "Network Administrator",
        "location": "Irvine CA",
        "lat": 33.6839,
        "lon": -117.7947,
        "pay": "40 per hour Hourly"
    },
    {
        "title": "HPC & Linux Systems Admin",
        "location": "Laramie WY",
        "lat": 41.3114,
        "lon": -105.5911,
        "pay": "76900 Annually"
    },
    {
        "title": "Cloud Security Engineer",
        "location": "Ferndale MI",
        "lat": 42.4606,
        "lon": -83.1346,
        "pay": "90000 Annually"
    },
    {
        "title": "Lab Technician",
        "location": "Detroit USA",
        "lat": 42.3314,
        "lon": -83.0458,
        "pay": "45 Hourly"
    },
    {
        "title": "Systems Technician ",
        "location": "North Carolina Holly Springs",
        "lat": 35.6513,
        "lon": -78.8336,
        "pay": "29 Hourly"
    },
    {
        "title": "Information Technology Manager",
        "location": "Brisbane Australia",
        "lat": -27.4698,
        "lon": 153.0251,
        "pay": "80000 Annually"
    },
    {
        "title": "Director of Cyber Architecture and Strategy",
        "location": "Seattle USA",
        "lat": 47.6062,
        "lon": -122.3321,
        "pay": "218000 Annually"
    },
    {
        "title": "Cloud Engineer",
        "location": "Virginia Beach us",
        "lat": 36.8529,
        "lon": -75.978,
        "pay": "85000 Annually"
    },
    {
        "title": "It manager",
        "location": "Fort Myers fl",
        "lat": 26.6406,
        "lon": -81.8723,
        "pay": "80000 Annually"
    },
    {
        "title": "Business Support 2",
        "location": "Pompano beach",
        "lat": 26.2379,
        "lon": -80.1248,
        "pay": "48000 Annually"
    },
    {
        "title": "IT Support",
        "location": "Dayton",
        "lat": 39.7589,
        "lon": -84.1916,
        "pay": "23 Hourly"
    },
    {
        "title": "IT support technician ",
        "location": "Ann Arbor US",
        "lat": 42.2808,
        "lon": -83.743,
        "pay": "$27 Hourly"
    },
    {
        "title": "IT manager",
        "location": "Tulsa Oklahoma",
        "lat": 36.154,
        "lon": -95.9928,
        "pay": "100 Annually"
    },
    {
        "title": "Cloud apps admin",
        "location": "New zealand",
        "lat": -40.9006,
        "lon": 174.886,
        "pay": "42000 Annually"
    },
    {
        "title": "Technology Director ",
        "location": "Marshall MN USA",
        "lat": 44.4468,
        "lon": -95.7881,
        "pay": "71000 Annually"
    },
    {
        "title": "Desktop Technician",
        "location": "Brisbane Australia",
        "lat": -27.4698,
        "lon": 153.0251,
        "pay": "80000 Annually"
    },
    {
        "title": "Tier 1 support specialist ",
        "location": "Indianapolis USA",
        "lat": 39.7684,
        "lon": -86.1581,
        "pay": "72800 Annually"
    },
    {
        "title": "Director of IT",
        "location": "Fort Lauderdale fl",
        "lat": 26.1224,
        "lon": -80.1373,
        "pay": "130000 Annually"
    },
    {
        "title": "Technology Director",
        "location": "Georgia USA",
        "lat": 32.7555,
        "lon": -83.881,
        "pay": "$69,435 Annually"
    },
    {
        "title": "Technical support engineer ",
        "location": "Ireland",
        "lat": 53.1424,
        "lon": -7.6921,
        "pay": "15.6 Hourly"
    },
    {
        "title": "Systems Administrator ",
        "location": "Columbia MD USA",
        "lat": 39.2037,
        "lon": -76.861,
        "pay": "$172,000 Annually"
    },
    {
        "title": "Pc Tech/ Network Security Analyst ",
        "location": "Midland TX USA",
        "lat": 31.9973,
        "lon": -102.0779,
        "pay": "65000 Annually"
    },
    {
        "title": "Rates/Water/Finance/ITC Clerk",
        "location": "Warren NSW Sustralia",
        "lat": -33.4439,
        "lon": 148.0361,
        "pay": "$44,335 Annually"
    },